{"type":"FeatureCollection", "features": [{"type":"Feature","geometry":{"type":"Point","coordinates":[-99.74,32.45]},"properties":{"name":"Abilene TX","state":"TX","pop":" 113888","capital":"0"}},{"type":"Feature","geometry":{"type":"Point","coordinates":[-81.52,41.08]},"properties":{"name":"Akron OH","state":"OH","pop":" 206634","capital":"0"}},{"type":"Feature","geometry":{"type":"Point","coordinates":[-122.26,37.77]},"properties":{"name":"Alameda CA","state":"CA","pop":"  70069","capital":"0"}},{"type":"Feature","geometry":{"type":"Point","coordinates":[-84.18,31.58]},"properties":{"name":"Albany GA","state":"GA","pop":"  75510","capital":"0"}},{"type":"Feature","geometry":{"type":"Point","coordinates":[-73.8,42.67]},"properties":{"name":"Albany NY","state":"NY","pop":"  93576","capital":"2"}},{"type":"Feature","geometry":{"type":"Point","coordinates":[-123.09,44.62]},"properties":{"name":"Albany OR","state":"OR","pop":"  45535","capital":"0"}},{"type":"Feature","geometry":{"type":"Point","coordinates":[-106.62,35.12]},"properties":{"name":"Albuquerque NM","state":"NM","pop":" 494962","capital":"0"}},{"type":"Feature","geometry":{"type":"Point","coordinates":[-92.46,31.29]},"properties":{"name":"Alexandria LA","state":"LA","pop":"  44933","capital":"0"}},{"type":"Feature","geometry":{"type":"Point","coordinates":[-77.09,38.82]},"properties":{"name":"Alexandria VA","state":"VA","pop":" 127159","capital":"0"}},{"type":"Feature","geometry":{"type":"Point","coordinates":[-118.13,34.08]},"properties":{"name":"Alhambra CA","state":"CA","pop":"  88857","capital":"0"}},{"type":"Feature","geometry":{"type":"Point","coordinates":[-117.73,33.57]},"properties":{"name":"Aliso Viejo CA","state":"CA","pop":"  41975","capital":"0"}},{"type":"Feature","geometry":{"type":"Point","coordinates":[-96.67,33.11]},"properties":{"name":"Allen TX","state":"TX","pop":"  84467","capital":"0"}},{"type":"Feature","geometry":{"type":"Point","coordinates":[-75.48,40.6]},"properties":{"name":"Allentown PA","state":"PA","pop":" 105224","capital":"0"}},{"type":"Feature","geometry":{"type":"Point","coordinates":[-122.87,45.49]},"properties":{"name":"Aloha OR","state":"OR","pop":"  45531","capital":"0"}},{"type":"Feature","geometry":{"type":"Point","coordinates":[-118.13,34.19]},"properties":{"name":"Altadena CA","state":"CA","pop":"  43280","capital":"0"}},{"type":"Feature","geometry":{"type":"Point","coordinates":[-81.4,28.66]},"properties":{"name":"Altamonte Springs FL","state":"FL","pop":"  40712","capital":"0"}},{"type":"Feature","geometry":{"type":"Point","coordinates":[-78.4,40.51]},"properties":{"name":"Altoona PA","state":"PA","pop":"  46442","capital":"0"}},{"type":"Feature","geometry":{"type":"Point","coordinates":[-101.82,35.2]},"properties":{"name":"Amarillo TX","state":"TX","pop":" 183295","capital":"0"}},{"type":"Feature","geometry":{"type":"Point","coordinates":[-93.63,42.02]},"properties":{"name":"Ames IA","state":"IA","pop":"  57683","capital":"0"}},{"type":"Feature","geometry":{"type":"Point","coordinates":[-117.87,33.84]},"properties":{"name":"Anaheim CA","state":"CA","pop":" 334909","capital":"0"}},{"type":"Feature","geometry":{"type":"Point","coordinates":[-149.19,61.18]},"properties":{"name":"Anchorage AK","state":"AK","pop":" 279428","capital":"0"}},{"type":"Feature","geometry":{"type":"Point","coordinates":[-85.69,40.09]},"properties":{"name":"Anderson IN","state":"IN","pop":"  57036","capital":"0"}},{"type":"Feature","geometry":{"type":"Point","coordinates":[-71.14,42.65]},"properties":{"name":"Andover MA","state":"MA","pop":"  67715","capital":"0"}},{"type":"Feature","geometry":{"type":"Point","coordinates":[-83.73,42.28]},"properties":{"name":"Ann Arbor MI","state":"MI","pop":" 113716","capital":"0"}},{"type":"Feature","geometry":{"type":"Point","coordinates":[-77.21,38.83]},"properties":{"name":"Annandale VA","state":"VA","pop":"  57942","capital":"0"}},{"type":"Feature","geometry":{"type":"Point","coordinates":[-76.49,38.98]},"properties":{"name":"Annapolis MD","state":"MD","pop":"  36300","capital":"2"}},{"type":"Feature","geometry":{"type":"Point","coordinates":[-121.8,37.99]},"properties":{"name":"Antioch CA","state":"CA","pop":" 109485","capital":"0"}},{"type":"Feature","geometry":{"type":"Point","coordinates":[-117.21,34.53]},"properties":{"name":"Apple Valley CA","state":"CA","pop":"  66361","capital":"0"}},{"type":"Feature","geometry":{"type":"Point","coordinates":[-93.2,44.75]},"properties":{"name":"Apple Valley MN","state":"MN","pop":"  51609","capital":"0"}},{"type":"Feature","geometry":{"type":"Point","coordinates":[-88.4,44.27]},"properties":{"name":"Appleton WI","state":"WI","pop":"  70090","capital":"0"}},{"type":"Feature","geometry":{"type":"Point","coordinates":[-118.04,34.13]},"properties":{"name":"Arcadia CA","state":"CA","pop":"  57429","capital":"0"}},{"type":"Feature","geometry":{"type":"Point","coordinates":[-121.38,38.6]},"properties":{"name":"Arden-Arcade CA","state":"CA","pop":"  99968","capital":"0"}},{"type":"Feature","geometry":{"type":"Point","coordinates":[-87.98,42.09]},"properties":{"name":"Arlington Heights IL","state":"IL","pop":"  74763","capital":"0"}},{"type":"Feature","geometry":{"type":"Point","coordinates":[-71.16,42.42]},"properties":{"name":"Arlington MA","state":"MA","pop":"  41246","capital":"0"}},{"type":"Feature","geometry":{"type":"Point","coordinates":[-97.13,32.69]},"properties":{"name":"Arlington TX","state":"TX","pop":" 374729","capital":"0"}},{"type":"Feature","geometry":{"type":"Point","coordinates":[-77.1,38.88]},"properties":{"name":"Arlington VA","state":"VA","pop":" 184603","capital":"0"}},{"type":"Feature","geometry":{"type":"Point","coordinates":[-105.11,39.82]},"properties":{"name":"Arvada CO","state":"CO","pop":" 101633","capital":"0"}},{"type":"Feature","geometry":{"type":"Point","coordinates":[-82.55,35.57]},"properties":{"name":"Asheville NC","state":"NC","pop":"  68654","capital":"0"}},{"type":"Feature","geometry":{"type":"Point","coordinates":[-77.08,39.09]},"properties":{"name":"Aspen Hill MD","state":"MD","pop":"  54029","capital":"0"}},{"type":"Feature","geometry":{"type":"Point","coordinates":[-83.39,33.95]},"properties":{"name":"Athens-Clarke GA","state":"GA","pop":" 103618","capital":"0"}},{"type":"Feature","geometry":{"type":"Point","coordinates":[-84.42,33.76]},"properties":{"name":"Atlanta GA","state":"GA","pop":" 424096","capital":"2"}},{"type":"Feature","geometry":{"type":"Point","coordinates":[-74.45,39.38]},"properties":{"name":"Atlantic City NJ","state":"NJ","pop":"  40529","capital":"0"}},{"type":"Feature","geometry":{"type":"Point","coordinates":[-71.3,41.93]},"properties":{"name":"Attleboro MA","state":"MA","pop":"  44690","capital":"0"}},{"type":"Feature","geometry":{"type":"Point","coordinates":[-85.48,32.59]},"properties":{"name":"Auburn AL","state":"AL","pop":"  51236","capital":"0"}},{"type":"Feature","geometry":{"type":"Point","coordinates":[-122.21,47.3]},"properties":{"name":"Auburn WA","state":"WA","pop":"  46108","capital":"0"}},{"type":"Feature","geometry":{"type":"Point","coordinates":[-69.77,44.32]},"properties":{"name":"Augusta ME","state":"ME","pop":"  18626","capital":"2"}},{"type":"Feature","geometry":{"type":"Point","coordinates":[-81.99,33.46]},"properties":{"name":"Augusta-Richmond GA","state":"GA","pop":" 192376","capital":"0"}},{"type":"Feature","geometry":{"type":"Point","coordinates":[-104.73,39.71]},"properties":{"name":"Aurora CO","state":"CO","pop":" 304641","capital":"0"}},{"type":"Feature","geometry":{"type":"Point","coordinates":[-88.29,41.77]},"properties":{"name":"Aurora IL","state":"IL","pop":" 181120","capital":"0"}},{"type":"Feature","geometry":{"type":"Point","coordinates":[-97.75,30.31]},"properties":{"name":"Austin TX","state":"TX","pop":" 683404","capital":"2"}},{"type":"Feature","geometry":{"type":"Point","coordinates":[-112.32,33.42]},"properties":{"name":"Avondale AZ","state":"AZ","pop":"  79125","capital":"0"}},{"type":"Feature","geometry":{"type":"Point","coordinates":[-117.91,34.14]},"properties":{"name":"Azusa CA","state":"CA","pop":"  48992","capital":"0"}},{"type":"Feature","geometry":{"type":"Point","coordinates":[-119,35.36]},"properties":{"name":"Bakersfield CA","state":"CA","pop":" 301775","capital":"0"}},{"type":"Feature","geometry":{"type":"Point","coordinates":[-117.97,34.08]},"properties":{"name":"Baldwin Park CA","state":"CA","pop":"  81467","capital":"0"}},{"type":"Feature","geometry":{"type":"Point","coordinates":[-76.61,39.3]},"properties":{"name":"Baltimore MD","state":"MD","pop":" 602658","capital":"0"}},{"type":"Feature","geometry":{"type":"Point","coordinates":[-70.3,41.7]},"properties":{"name":"Barnstable Town MA","state":"MA","pop":"  49598","capital":"0"}},{"type":"Feature","geometry":{"type":"Point","coordinates":[-89.84,35.22]},"properties":{"name":"Bartlett TN","state":"TN","pop":"  43852","capital":"0"}},{"type":"Feature","geometry":{"type":"Point","coordinates":[-91.13,30.45]},"properties":{"name":"Baton Rouge LA","state":"LA","pop":" 222217","capital":"2"}},{"type":"Feature","geometry":{"type":"Point","coordinates":[-85.23,42.3]},"properties":{"name":"Battle Creek MI","state":"MI","pop":"  54179","capital":"0"}},{"type":"Feature","geometry":{"type":"Point","coordinates":[-74.11,40.66]},"properties":{"name":"Bayonne NJ","state":"NJ","pop":"  59482","capital":"0"}},{"type":"Feature","geometry":{"type":"Point","coordinates":[-94.97,29.75]},"properties":{"name":"Baytown TX","state":"TX","pop":"  67487","capital":"0"}},{"type":"Feature","geometry":{"type":"Point","coordinates":[-94.14,30.09]},"properties":{"name":"Beaumont TX","state":"TX","pop":" 110949","capital":"0"}},{"type":"Feature","geometry":{"type":"Point","coordinates":[-84.06,39.73]},"properties":{"name":"Beavercreek OH","state":"OH","pop":"  41297","capital":"0"}},{"type":"Feature","geometry":{"type":"Point","coordinates":[-122.82,45.48]},"properties":{"name":"Beaverton OR","state":"OR","pop":"  83920","capital":"0"}},{"type":"Feature","geometry":{"type":"Point","coordinates":[-97.13,32.85]},"properties":{"name":"Bedford TX","state":"TX","pop":"  49572","capital":"0"}},{"type":"Feature","geometry":{"type":"Point","coordinates":[-76.32,39.5]},"properties":{"name":"Bel Air South MD","state":"MD","pop":"  50874","capital":"0"}},{"type":"Feature","geometry":{"type":"Point","coordinates":[-118.15,33.97]},"properties":{"name":"Bell Gardens CA","state":"CA","pop":"  46504","capital":"0"}},{"type":"Feature","geometry":{"type":"Point","coordinates":[-90,38.53]},"properties":{"name":"Belleville IL","state":"IL","pop":"  40745","capital":"0"}},{"type":"Feature","geometry":{"type":"Point","coordinates":[-95.92,41.16]},"properties":{"name":"Bellevue NE","state":"NE","pop":"  48894","capital":"0"}},{"type":"Feature","geometry":{"type":"Point","coordinates":[-122.16,47.6]},"properties":{"name":"Bellevue WA","state":"WA","pop":" 111896","capital":"0"}},{"type":"Feature","geometry":{"type":"Point","coordinates":[-118.13,33.89]},"properties":{"name":"Bellflower CA","state":"CA","pop":"  76437","capital":"0"}},{"type":"Feature","geometry":{"type":"Point","coordinates":[-122.47,48.74]},"properties":{"name":"Bellingham WA","state":"WA","pop":"  74770","capital":"0"}},{"type":"Feature","geometry":{"type":"Point","coordinates":[-121.31,44.07]},"properties":{"name":"Bend OR","state":"OR","pop":"  68945","capital":"0"}},{"type":"Feature","geometry":{"type":"Point","coordinates":[-122.27,37.87]},"properties":{"name":"Berkeley CA","state":"CA","pop":"  99653","capital":"0"}},{"type":"Feature","geometry":{"type":"Point","coordinates":[-87.79,41.84]},"properties":{"name":"Berwyn IL","state":"IL","pop":"  50904","capital":"0"}},{"type":"Feature","geometry":{"type":"Point","coordinates":[-77.12,38.99]},"properties":{"name":"Bethesda MD","state":"MD","pop":"  52217","capital":"0"}},{"type":"Feature","geometry":{"type":"Point","coordinates":[-75.37,40.63]},"properties":{"name":"Bethlehem PA","state":"PA","pop":"  74087","capital":"0"}},{"type":"Feature","geometry":{"type":"Point","coordinates":[-70.84,42.56]},"properties":{"name":"Beverly MA","state":"MA","pop":"  40441","capital":"0"}},{"type":"Feature","geometry":{"type":"Point","coordinates":[-71.26,42.56]},"properties":{"name":"Billerica MA","state":"MA","pop":"  40063","capital":"0"}},{"type":"Feature","geometry":{"type":"Point","coordinates":[-108.54,45.79]},"properties":{"name":"Billings MT","state":"MT","pop":" 101249","capital":"0"}},{"type":"Feature","geometry":{"type":"Point","coordinates":[-88.93,30.41]},"properties":{"name":"Biloxi MS","state":"MS","pop":"  47110","capital":"0"}},{"type":"Feature","geometry":{"type":"Point","coordinates":[-75.91,42.1]},"properties":{"name":"Binghamton NY","state":"NY","pop":"  45070","capital":"0"}},{"type":"Feature","geometry":{"type":"Point","coordinates":[-86.8,33.53]},"properties":{"name":"Birmingham AL","state":"AL","pop":" 229300","capital":"0"}},{"type":"Feature","geometry":{"type":"Point","coordinates":[-100.77,46.81]},"properties":{"name":"Bismarck ND","state":"ND","pop":"  56927","capital":"2"}},{"type":"Feature","geometry":{"type":"Point","coordinates":[-80.43,37.23]},"properties":{"name":"Blacksburg VA","state":"VA","pop":"  40303","capital":"0"}},{"type":"Feature","geometry":{"type":"Point","coordinates":[-93.21,45.17]},"properties":{"name":"Blaine MN","state":"MN","pop":"  56140","capital":"0"}},{"type":"Feature","geometry":{"type":"Point","coordinates":[-74.19,40.81]},"properties":{"name":"Bloomfield NJ","state":"NJ","pop":"  49358","capital":"0"}},{"type":"Feature","geometry":{"type":"Point","coordinates":[-83.27,42.58]},"properties":{"name":"Bloomfield Township MI","state":"MI","pop":"  43032","capital":"0"}},{"type":"Feature","geometry":{"type":"Point","coordinates":[-88.97,40.48]},"properties":{"name":"Bloomington IL","state":"IL","pop":"  71804","capital":"0"}},{"type":"Feature","geometry":{"type":"Point","coordinates":[-86.52,39.17]},"properties":{"name":"Bloomington IN","state":"IN","pop":"  71260","capital":"0"}},{"type":"Feature","geometry":{"type":"Point","coordinates":[-93.32,44.83]},"properties":{"name":"Bloomington MN","state":"MN","pop":"  80627","capital":"0"}},{"type":"Feature","geometry":{"type":"Point","coordinates":[-94.27,39.02]},"properties":{"name":"Blue Springs MO","state":"MO","pop":"  50116","capital":"0"}},{"type":"Feature","geometry":{"type":"Point","coordinates":[-80.11,26.37]},"properties":{"name":"Boca Raton FL","state":"FL","pop":"  81868","capital":"0"}},{"type":"Feature","geometry":{"type":"Point","coordinates":[-116.23,43.61]},"properties":{"name":"Boise ID","state":"ID","pop":" 193628","capital":"2"}},{"type":"Feature","geometry":{"type":"Point","coordinates":[-88.08,41.7]},"properties":{"name":"Bolingbrook IL","state":"IL","pop":"  76994","capital":"0"}},{"type":"Feature","geometry":{"type":"Point","coordinates":[-81.79,26.34]},"properties":{"name":"Bonita Springs FL","state":"FL","pop":"  43842","capital":"0"}},{"type":"Feature","geometry":{"type":"Point","coordinates":[-93.66,32.52]},"properties":{"name":"Bossier City LA","state":"LA","pop":"  60142","capital":"0"}},{"type":"Feature","geometry":{"type":"Point","coordinates":[-71.02,42.34]},"properties":{"name":"Boston MA","state":"MA","pop":" 567759","capital":"2"}},{"type":"Feature","geometry":{"type":"Point","coordinates":[-105.25,40.03]},"properties":{"name":"Boulder CO","state":"CO","pop":"  90957","capital":"0"}},{"type":"Feature","geometry":{"type":"Point","coordinates":[-111.87,40.88]},"properties":{"name":"Bountiful UT","state":"UT","pop":"  41622","capital":"0"}},{"type":"Feature","geometry":{"type":"Point","coordinates":[-70.61,41.74]},"properties":{"name":"Bourne MA","state":"MA","pop":"  48580","capital":"0"}},{"type":"Feature","geometry":{"type":"Point","coordinates":[-76.74,38.96]},"properties":{"name":"Bowie MD","state":"MD","pop":"  56949","capital":"0"}},{"type":"Feature","geometry":{"type":"Point","coordinates":[-86.44,36.97]},"properties":{"name":"Bowling Green KY","state":"KY","pop":"  51999","capital":"0"}},{"type":"Feature","geometry":{"type":"Point","coordinates":[-80.08,26.53]},"properties":{"name":"Boynton Beach FL","state":"FL","pop":"  67720","capital":"0"}},{"type":"Feature","geometry":{"type":"Point","coordinates":[-82.58,27.49]},"properties":{"name":"Bradenton FL","state":"FL","pop":"  55606","capital":"0"}},{"type":"Feature","geometry":{"type":"Point","coordinates":[-82.29,27.93]},"properties":{"name":"Brandon FL","state":"FL","pop":"  92728","capital":"0"}},{"type":"Feature","geometry":{"type":"Point","coordinates":[-117.87,33.92]},"properties":{"name":"Brea CA","state":"CA","pop":"  40349","capital":"0"}},{"type":"Feature","geometry":{"type":"Point","coordinates":[-122.7,47.55]},"properties":{"name":"Bremerton WA","state":"WA","pop":"  45306","capital":"0"}},{"type":"Feature","geometry":{"type":"Point","coordinates":[-121.71,37.93]},"properties":{"name":"Brentwood CA","state":"CA","pop":"  52747","capital":"0"}},{"type":"Feature","geometry":{"type":"Point","coordinates":[-73.25,40.78]},"properties":{"name":"Brentwood NY","state":"NY","pop":"  58954","capital":"0"}},{"type":"Feature","geometry":{"type":"Point","coordinates":[-70.08,41.77]},"properties":{"name":"Brewster MA","state":"MA","pop":"  52153","capital":"0"}},{"type":"Feature","geometry":{"type":"Point","coordinates":[-74.11,40.06]},"properties":{"name":"Brick NJ","state":"NJ","pop":"  82400","capital":"0"}},{"type":"Feature","geometry":{"type":"Point","coordinates":[-73.2,41.19]},"properties":{"name":"Bridgeport CT","state":"CT","pop":" 138901","capital":"0"}},{"type":"Feature","geometry":{"type":"Point","coordinates":[-70.97,41.99]},"properties":{"name":"Bridgewater MA","state":"MA","pop":"  50237","capital":"0"}},{"type":"Feature","geometry":{"type":"Point","coordinates":[-72.94,41.68]},"properties":{"name":"Bristol CT","state":"CT","pop":"  61166","capital":"0"}},{"type":"Feature","geometry":{"type":"Point","coordinates":[-71.03,42.08]},"properties":{"name":"Brockton MA","state":"MA","pop":"  94945","capital":"0"}},{"type":"Feature","geometry":{"type":"Point","coordinates":[-95.79,36.04]},"properties":{"name":"Broken Arrow OK","state":"OK","pop":"  86817","capital":"0"}},{"type":"Feature","geometry":{"type":"Point","coordinates":[-88.12,43.06]},"properties":{"name":"Brookfield WI","state":"WI","pop":"  40323","capital":"0"}},{"type":"Feature","geometry":{"type":"Point","coordinates":[-71.14,42.32]},"properties":{"name":"Brookline MA","state":"MA","pop":"  55862","capital":"0"}},{"type":"Feature","geometry":{"type":"Point","coordinates":[-93.35,45.11]},"properties":{"name":"Brooklyn Park MN","state":"MN","pop":"  67660","capital":"0"}},{"type":"Feature","geometry":{"type":"Point","coordinates":[-105.06,39.94]},"properties":{"name":"Broomfield CO","state":"CO","pop":"  45869","capital":"0"}},{"type":"Feature","geometry":{"type":"Point","coordinates":[-97.48,25.93]},"properties":{"name":"Brownsville TX","state":"TX","pop":" 174135","capital":"0"}},{"type":"Feature","geometry":{"type":"Point","coordinates":[-96.37,30.67]},"properties":{"name":"Bryan TX","state":"TX","pop":"  70386","capital":"0"}},{"type":"Feature","geometry":{"type":"Point","coordinates":[-118,33.86]},"properties":{"name":"Buena Park CA","state":"CA","pop":"  79388","capital":"0"}},{"type":"Feature","geometry":{"type":"Point","coordinates":[-87.96,42.17]},"properties":{"name":"Buffalo Grove IL","state":"IL","pop":"  43355","capital":"0"}},{"type":"Feature","geometry":{"type":"Point","coordinates":[-78.86,42.89]},"properties":{"name":"Buffalo NY","state":"NY","pop":" 276762","capital":"0"}},{"type":"Feature","geometry":{"type":"Point","coordinates":[-118.33,34.19]},"properties":{"name":"Burbank CA","state":"CA","pop":" 105515","capital":"0"}},{"type":"Feature","geometry":{"type":"Point","coordinates":[-77.27,38.78]},"properties":{"name":"Burke VA","state":"VA","pop":"  58270","capital":"0"}},{"type":"Feature","geometry":{"type":"Point","coordinates":[-79.45,36.08]},"properties":{"name":"Burlington NC","state":"NC","pop":"  47290","capital":"0"}},{"type":"Feature","geometry":{"type":"Point","coordinates":[-93.28,44.76]},"properties":{"name":"Burnsville MN","state":"MN","pop":"  59357","capital":"0"}},{"type":"Feature","geometry":{"type":"Point","coordinates":[-119.03,34.22]},"properties":{"name":"Camarillo CA","state":"CA","pop":"  63560","capital":"0"}},{"type":"Feature","geometry":{"type":"Point","coordinates":[-71.12,42.38]},"properties":{"name":"Cambridge MA","state":"MA","pop":" 101342","capital":"0"}},{"type":"Feature","geometry":{"type":"Point","coordinates":[-75.11,39.94]},"properties":{"name":"Camden NJ","state":"NJ","pop":"  80393","capital":"0"}},{"type":"Feature","geometry":{"type":"Point","coordinates":[-83.48,42.31]},"properties":{"name":"Canton MI","state":"MI","pop":"  89064","capital":"0"}},{"type":"Feature","geometry":{"type":"Point","coordinates":[-81.37,40.81]},"properties":{"name":"Canton OH","state":"OH","pop":"  77575","capital":"0"}},{"type":"Feature","geometry":{"type":"Point","coordinates":[-82,26.64]},"properties":{"name":"Cape Coral FL","state":"FL","pop":" 137134","capital":"0"}},{"type":"Feature","geometry":{"type":"Point","coordinates":[-117.29,33.12]},"properties":{"name":"Carlsbad CA","state":"CA","pop":"  93848","capital":"0"}},{"type":"Feature","geometry":{"type":"Point","coordinates":[-86.11,39.97]},"properties":{"name":"Carmel IN","state":"IN","pop":"  49188","capital":"0"}},{"type":"Feature","geometry":{"type":"Point","coordinates":[-121.32,38.63]},"properties":{"name":"Carmichael CA","state":"CA","pop":"  51165","capital":"0"}},{"type":"Feature","geometry":{"type":"Point","coordinates":[-80.27,25.94]},"properties":{"name":"Carol City FL","state":"FL","pop":"  63659","capital":"0"}},{"type":"Feature","geometry":{"type":"Point","coordinates":[-88.13,41.92]},"properties":{"name":"Carol Stream IL","state":"IL","pop":"  39749","capital":"0"}},{"type":"Feature","geometry":{"type":"Point","coordinates":[-96.9,32.99]},"properties":{"name":"Carrollton TX","state":"TX","pop":" 123154","capital":"0"}},{"type":"Feature","geometry":{"type":"Point","coordinates":[-118.26,33.84]},"properties":{"name":"Carson CA","state":"CA","pop":"  96933","capital":"0"}},{"type":"Feature","geometry":{"type":"Point","coordinates":[-119.74,39.15]},"properties":{"name":"Carson City NV","state":"NV","pop":"  58350","capital":"2"}},{"type":"Feature","geometry":{"type":"Point","coordinates":[-78.8,35.78]},"properties":{"name":"Cary NC","state":"NC","pop":" 106117","capital":"0"}},{"type":"Feature","geometry":{"type":"Point","coordinates":[-110.99,32.32]},"properties":{"name":"Casas Adobes AZ","state":"AZ","pop":"  84988","capital":"0"}},{"type":"Feature","geometry":{"type":"Point","coordinates":[-106.33,42.83]},"properties":{"name":"Casper WY","state":"WY","pop":"  51808","capital":"0"}},{"type":"Feature","geometry":{"type":"Point","coordinates":[-104.85,39.38]},"properties":{"name":"Castle Rock CO","state":"CO","pop":"  43905","capital":"0"}},{"type":"Feature","geometry":{"type":"Point","coordinates":[-122.06,37.71]},"properties":{"name":"Castro Valley CA","state":"CA","pop":"  63908","capital":"0"}},{"type":"Feature","geometry":{"type":"Point","coordinates":[-110.92,32.3]},"properties":{"name":"Catalina Foothills AZ","state":"AZ","pop":"  84369","capital":"0"}},{"type":"Feature","geometry":{"type":"Point","coordinates":[-116.46,33.83]},"properties":{"name":"Cathedral City CA","state":"CA","pop":"  55253","capital":"0"}},{"type":"Feature","geometry":{"type":"Point","coordinates":[-76.74,39.26]},"properties":{"name":"Catonsville MD","state":"MD","pop":"  43406","capital":"0"}},{"type":"Feature","geometry":{"type":"Point","coordinates":[-96.96,32.58]},"properties":{"name":"Cedar Hill TX","state":"TX","pop":"  46869","capital":"0"}},{"type":"Feature","geometry":{"type":"Point","coordinates":[-97.83,30.51]},"properties":{"name":"Cedar Park TX","state":"TX","pop":"  58499","capital":"0"}},{"type":"Feature","geometry":{"type":"Point","coordinates":[-91.67,41.97]},"properties":{"name":"Cedar Rapids IA","state":"IA","pop":" 123243","capital":"0"}},{"type":"Feature","geometry":{"type":"Point","coordinates":[-104.85,39.6]},"properties":{"name":"Centennial CO","state":"CO","pop":"  95961","capital":"0"}},{"type":"Feature","geometry":{"type":"Point","coordinates":[-77.44,38.85]},"properties":{"name":"Centreville VA","state":"VA","pop":"  69167","capital":"0"}},{"type":"Feature","geometry":{"type":"Point","coordinates":[-120.96,37.6]},"properties":{"name":"Ceres CA","state":"CA","pop":"  41223","capital":"0"}},{"type":"Feature","geometry":{"type":"Point","coordinates":[-118.07,33.87]},"properties":{"name":"Cerritos CA","state":"CA","pop":"  53616","capital":"0"}},{"type":"Feature","geometry":{"type":"Point","coordinates":[-88.26,40.11]},"properties":{"name":"Champaign IL","state":"IL","pop":"  76999","capital":"0"}},{"type":"Feature","geometry":{"type":"Point","coordinates":[-111.87,33.3]},"properties":{"name":"Chandler AZ","state":"AZ","pop":" 247915","capital":"0"}},{"type":"Feature","geometry":{"type":"Point","coordinates":[-77.41,38.88]},"properties":{"name":"Chantilly VA","state":"VA","pop":"  50103","capital":"0"}},{"type":"Feature","geometry":{"type":"Point","coordinates":[-79.04,35.93]},"properties":{"name":"Chapel Hill NC","state":"NC","pop":"  47613","capital":"0"}},{"type":"Feature","geometry":{"type":"Point","coordinates":[-79.99,32.79]},"properties":{"name":"Charleston SC","state":"SC","pop":" 106372","capital":"0"}},{"type":"Feature","geometry":{"type":"Point","coordinates":[-81.63,38.35]},"properties":{"name":"Charleston WV","state":"WV","pop":"  49804","capital":"2"}},{"type":"Feature","geometry":{"type":"Point","coordinates":[-80.83,35.2]},"properties":{"name":"Charlotte NC","state":"NC","pop":" 607111","capital":"0"}},{"type":"Feature","geometry":{"type":"Point","coordinates":[-85.26,35.07]},"properties":{"name":"Chattanooga TN","state":"TN","pop":" 153617","capital":"0"}},{"type":"Feature","geometry":{"type":"Point","coordinates":[-78.75,42.91]},"properties":{"name":"Cheektowaga NY","state":"NY","pop":"  76785","capital":"0"}},{"type":"Feature","geometry":{"type":"Point","coordinates":[-75,39.9]},"properties":{"name":"Cherry Hill PA","state":"PA","pop":"  70489","capital":"0"}},{"type":"Feature","geometry":{"type":"Point","coordinates":[-76.31,36.68]},"properties":{"name":"Chesapeake VA","state":"VA","pop":" 223222","capital":"0"}},{"type":"Feature","geometry":{"type":"Point","coordinates":[-90.58,38.65]},"properties":{"name":"Chesterfield MO","state":"MO","pop":"  47202","capital":"0"}},{"type":"Feature","geometry":{"type":"Point","coordinates":[-104.79,41.15]},"properties":{"name":"Cheyenne WY","state":"WY","pop":"  55833","capital":"2"}},{"type":"Feature","geometry":{"type":"Point","coordinates":[-87.68,41.84]},"properties":{"name":"Chicago IL","state":"IL","pop":"2830144","capital":"0"}},{"type":"Feature","geometry":{"type":"Point","coordinates":[-121.81,39.75]},"properties":{"name":"Chico CA","state":"CA","pop":"  71997","capital":"0"}},{"type":"Feature","geometry":{"type":"Point","coordinates":[-72.57,42.18]},"properties":{"name":"Chicopee MA","state":"MA","pop":"  55222","capital":"0"}},{"type":"Feature","geometry":{"type":"Point","coordinates":[-117.69,34.01]},"properties":{"name":"Chino CA","state":"CA","pop":"  77147","capital":"0"}},{"type":"Feature","geometry":{"type":"Point","coordinates":[-117.75,33.97]},"properties":{"name":"Chino Hills CA","state":"CA","pop":"  80817","capital":"0"}},{"type":"Feature","geometry":{"type":"Point","coordinates":[-117.04,32.63]},"properties":{"name":"Chula Vista CA","state":"CA","pop":" 221736","capital":"0"}},{"type":"Feature","geometry":{"type":"Point","coordinates":[-87.76,41.84]},"properties":{"name":"Cicero IL","state":"IL","pop":"  80414","capital":"0"}},{"type":"Feature","geometry":{"type":"Point","coordinates":[-84.51,39.14]},"properties":{"name":"Cincinnati OH","state":"OH","pop":" 301561","capital":"0"}},{"type":"Feature","geometry":{"type":"Point","coordinates":[-121.29,38.69]},"properties":{"name":"Citrus Heights CA","state":"CA","pop":"  90277","capital":"0"}},{"type":"Feature","geometry":{"type":"Point","coordinates":[-87.35,36.56]},"properties":{"name":"Clarksville TN","state":"TN","pop":" 113379","capital":"0"}},{"type":"Feature","geometry":{"type":"Point","coordinates":[-82.77,27.98]},"properties":{"name":"Clearwater FL","state":"FL","pop":" 107866","capital":"0"}},{"type":"Feature","geometry":{"type":"Point","coordinates":[-81.56,41.51]},"properties":{"name":"Cleveland Heights OH","state":"OH","pop":"  47123","capital":"0"}},{"type":"Feature","geometry":{"type":"Point","coordinates":[-81.68,41.48]},"properties":{"name":"Cleveland OH","state":"OH","pop":" 443949","capital":"0"}},{"type":"Feature","geometry":{"type":"Point","coordinates":[-74.16,40.86]},"properties":{"name":"Clifton NJ","state":"NJ","pop":"  80446","capital":"0"}},{"type":"Feature","geometry":{"type":"Point","coordinates":[-82.92,42.59]},"properties":{"name":"Clinton MI","state":"MI","pop":" 100517","capital":"0"}},{"type":"Feature","geometry":{"type":"Point","coordinates":[-119.7,36.82]},"properties":{"name":"Clovis CA","state":"CA","pop":"  90115","capital":"0"}},{"type":"Feature","geometry":{"type":"Point","coordinates":[-80.18,26.28]},"properties":{"name":"Coconut Creek FL","state":"FL","pop":"  51848","capital":"0"}},{"type":"Feature","geometry":{"type":"Point","coordinates":[-116.78,47.7]},"properties":{"name":"Coeur d'Alene ID","state":"ID","pop":"  40270","capital":"0"}},{"type":"Feature","geometry":{"type":"Point","coordinates":[-96.31,30.6]},"properties":{"name":"College Station TX","state":"TX","pop":"  80627","capital":"0"}},{"type":"Feature","geometry":{"type":"Point","coordinates":[-104.76,38.86]},"properties":{"name":"Colorado Springs CO","state":"CO","pop":" 375744","capital":"0"}},{"type":"Feature","geometry":{"type":"Point","coordinates":[-117.32,34.06]},"properties":{"name":"Colton CA","state":"CA","pop":"  53281","capital":"0"}},{"type":"Feature","geometry":{"type":"Point","coordinates":[-76.86,39.2]},"properties":{"name":"Columbia MD","state":"MD","pop":"  97772","capital":"0"}},{"type":"Feature","geometry":{"type":"Point","coordinates":[-92.33,38.95]},"properties":{"name":"Columbia MO","state":"MO","pop":"  92756","capital":"0"}},{"type":"Feature","geometry":{"type":"Point","coordinates":[-80.89,34.04]},"properties":{"name":"Columbia SC","state":"SC","pop":" 118020","capital":"2"}},{"type":"Feature","geometry":{"type":"Point","coordinates":[-84.87,32.51]},"properties":{"name":"Columbus GA","state":"GA","pop":" 184900","capital":"0"}},{"type":"Feature","geometry":{"type":"Point","coordinates":[-85.91,39.21]},"properties":{"name":"Columbus IN","state":"IN","pop":"  39453","capital":"0"}},{"type":"Feature","geometry":{"type":"Point","coordinates":[-82.99,39.99]},"properties":{"name":"Columbus OH","state":"OH","pop":" 741677","capital":"2"}},{"type":"Feature","geometry":{"type":"Point","coordinates":[-118.23,33.89]},"properties":{"name":"Compton CA","state":"CA","pop":"  97338","capital":"0"}},{"type":"Feature","geometry":{"type":"Point","coordinates":[-122,37.97]},"properties":{"name":"Concord CA","state":"CA","pop":" 126360","capital":"0"}},{"type":"Feature","geometry":{"type":"Point","coordinates":[-80.59,35.41]},"properties":{"name":"Concord NC","state":"NC","pop":"  61640","capital":"0"}},{"type":"Feature","geometry":{"type":"Point","coordinates":[-71.56,43.23]},"properties":{"name":"Concord NH","state":"NH","pop":"  42967","capital":"2"}},{"type":"Feature","geometry":{"type":"Point","coordinates":[-95.47,30.32]},"properties":{"name":"Conroe TX","state":"TX","pop":"  42545","capital":"0"}},{"type":"Feature","geometry":{"type":"Point","coordinates":[-92.45,35.09]},"properties":{"name":"Conway AR","state":"AR","pop":"  53297","capital":"0"}},{"type":"Feature","geometry":{"type":"Point","coordinates":[-93.31,45.17]},"properties":{"name":"Coon Rapids MN","state":"MN","pop":"  62711","capital":"0"}},{"type":"Feature","geometry":{"type":"Point","coordinates":[-96.99,32.96]},"properties":{"name":"Coppell TX","state":"TX","pop":"  40487","capital":"0"}},{"type":"Feature","geometry":{"type":"Point","coordinates":[-80.26,25.7]},"properties":{"name":"Coral Gables FL","state":"FL","pop":"  42495","capital":"0"}},{"type":"Feature","geometry":{"type":"Point","coordinates":[-80.26,26.27]},"properties":{"name":"Coral Springs FL","state":"FL","pop":" 134773","capital":"0"}},{"type":"Feature","geometry":{"type":"Point","coordinates":[-117.57,33.87]},"properties":{"name":"Corona CA","state":"CA","pop":" 159198","capital":"0"}},{"type":"Feature","geometry":{"type":"Point","coordinates":[-97.29,27.71]},"properties":{"name":"Corpus Christi TX","state":"TX","pop":" 280808","capital":"0"}},{"type":"Feature","geometry":{"type":"Point","coordinates":[-123.28,44.57]},"properties":{"name":"Corvallis OR","state":"OR","pop":"  50932","capital":"0"}},{"type":"Feature","geometry":{"type":"Point","coordinates":[-117.91,33.67]},"properties":{"name":"Costa Mesa CA","state":"CA","pop":" 109357","capital":"0"}},{"type":"Feature","geometry":{"type":"Point","coordinates":[-95.86,41.24]},"properties":{"name":"Council Bluffs IA","state":"IA","pop":"  58834","capital":"0"}},{"type":"Feature","geometry":{"type":"Point","coordinates":[-80.32,25.95]},"properties":{"name":"Country Club FL","state":"FL","pop":"  58321","capital":"0"}},{"type":"Feature","geometry":{"type":"Point","coordinates":[-117.88,34.09]},"properties":{"name":"Covina CA","state":"CA","pop":"  49039","capital":"0"}},{"type":"Feature","geometry":{"type":"Point","coordinates":[-84.51,39.04]},"properties":{"name":"Covington KY","state":"KY","pop":"  41896","capital":"0"}},{"type":"Feature","geometry":{"type":"Point","coordinates":[-71.48,41.77]},"properties":{"name":"Cranston RI","state":"RI","pop":"  83595","capital":"0"}},{"type":"Feature","geometry":{"type":"Point","coordinates":[-88.33,42.23]},"properties":{"name":"Crystal Lake IL","state":"IL","pop":"  41874","capital":"0"}},{"type":"Feature","geometry":{"type":"Point","coordinates":[-118.4,34.01]},"properties":{"name":"Culver City CA","state":"CA","pop":"  40361","capital":"0"}},{"type":"Feature","geometry":{"type":"Point","coordinates":[-122.05,37.31]},"properties":{"name":"Cupertino CA","state":"CA","pop":"  50952","capital":"0"}},{"type":"Feature","geometry":{"type":"Point","coordinates":[-81.52,41.17]},"properties":{"name":"Cuyahoga Falls OH","state":"OH","pop":"  52223","capital":"0"}},{"type":"Feature","geometry":{"type":"Point","coordinates":[-118.04,33.82]},"properties":{"name":"Cypress CA","state":"CA","pop":"  47521","capital":"0"}},{"type":"Feature","geometry":{"type":"Point","coordinates":[-77.34,38.65]},"properties":{"name":"Dale City VA","state":"VA","pop":"  62241","capital":"0"}},{"type":"Feature","geometry":{"type":"Point","coordinates":[-96.77,32.79]},"properties":{"name":"Dallas TX","state":"TX","pop":"1216543","capital":"0"}},{"type":"Feature","geometry":{"type":"Point","coordinates":[-122.47,37.69]},"properties":{"name":"Daly City CA","state":"CA","pop":"  98084","capital":"0"}},{"type":"Feature","geometry":{"type":"Point","coordinates":[-73.47,41.4]},"properties":{"name":"Danbury CT","state":"CT","pop":"  79292","capital":"0"}},{"type":"Feature","geometry":{"type":"Point","coordinates":[-121.97,37.81]},"properties":{"name":"Danville CA","state":"CA","pop":"  43110","capital":"0"}},{"type":"Feature","geometry":{"type":"Point","coordinates":[-79.41,36.58]},"properties":{"name":"Danville VA","state":"VA","pop":"  45382","capital":"0"}},{"type":"Feature","geometry":{"type":"Point","coordinates":[-90.6,41.56]},"properties":{"name":"Davenport IA","state":"IA","pop":"  96595","capital":"0"}},{"type":"Feature","geometry":{"type":"Point","coordinates":[-80.29,26.08]},"properties":{"name":"Davie FL","state":"FL","pop":"  84154","capital":"0"}},{"type":"Feature","geometry":{"type":"Point","coordinates":[-121.74,38.55]},"properties":{"name":"Davis CA","state":"CA","pop":"  66992","capital":"0"}},{"type":"Feature","geometry":{"type":"Point","coordinates":[-84.2,39.78]},"properties":{"name":"Dayton OH","state":"OH","pop":" 157607","capital":"0"}},{"type":"Feature","geometry":{"type":"Point","coordinates":[-81.05,29.19]},"properties":{"name":"Daytona Beach FL","state":"FL","pop":"  64735","capital":"0"}},{"type":"Feature","geometry":{"type":"Point","coordinates":[-88.75,41.93]},"properties":{"name":"DeKalb IL","state":"IL","pop":"  44223","capital":"0"}},{"type":"Feature","geometry":{"type":"Point","coordinates":[-96.86,32.6]},"properties":{"name":"DeSoto TX","state":"TX","pop":"  47179","capital":"0"}},{"type":"Feature","geometry":{"type":"Point","coordinates":[-83.27,42.33]},"properties":{"name":"Dearborn Heights MI","state":"MI","pop":"  55964","capital":"0"}},{"type":"Feature","geometry":{"type":"Point","coordinates":[-83.21,42.31]},"properties":{"name":"Dearborn MI","state":"MI","pop":"  94681","capital":"0"}},{"type":"Feature","geometry":{"type":"Point","coordinates":[-86.99,34.57]},"properties":{"name":"Decatur AL","state":"AL","pop":"  54717","capital":"0"}},{"type":"Feature","geometry":{"type":"Point","coordinates":[-88.93,39.85]},"properties":{"name":"Decatur IL","state":"IL","pop":"  77026","capital":"0"}},{"type":"Feature","geometry":{"type":"Point","coordinates":[-80.12,26.31]},"properties":{"name":"Deerfield Beach FL","state":"FL","pop":"  66628","capital":"0"}},{"type":"Feature","geometry":{"type":"Point","coordinates":[-119.25,35.76]},"properties":{"name":"Delano CA","state":"CA","pop":"  45933","capital":"0"}},{"type":"Feature","geometry":{"type":"Point","coordinates":[-80.09,26.45]},"properties":{"name":"Delray Beach FL","state":"FL","pop":"  66633","capital":"0"}},{"type":"Feature","geometry":{"type":"Point","coordinates":[-81.21,28.91]},"properties":{"name":"Deltona FL","state":"FL","pop":"  84646","capital":"0"}},{"type":"Feature","geometry":{"type":"Point","coordinates":[-70.2,41.74]},"properties":{"name":"Dennis MA","state":"MA","pop":"  39833","capital":"0"}},{"type":"Feature","geometry":{"type":"Point","coordinates":[-97.13,33.21]},"properties":{"name":"Denton TX","state":"TX","pop":" 105431","capital":"0"}},{"type":"Feature","geometry":{"type":"Point","coordinates":[-104.87,39.77]},"properties":{"name":"Denver CO","state":"CO","pop":" 556575","capital":"2"}},{"type":"Feature","geometry":{"type":"Point","coordinates":[-93.62,41.58]},"properties":{"name":"Des Moines IA","state":"IA","pop":" 192050","capital":"2"}},{"type":"Feature","geometry":{"type":"Point","coordinates":[-87.9,42.03]},"properties":{"name":"Des Plaines IL","state":"IL","pop":"  53601","capital":"0"}},{"type":"Feature","geometry":{"type":"Point","coordinates":[-83.1,42.38]},"properties":{"name":"Detroit MI","state":"MI","pop":" 871789","capital":"0"}},{"type":"Feature","geometry":{"type":"Point","coordinates":[-117.81,34]},"properties":{"name":"Diamond Bar CA","state":"CA","pop":"  59433","capital":"0"}},{"type":"Feature","geometry":{"type":"Point","coordinates":[-85.41,31.24]},"properties":{"name":"Dothan AL","state":"AL","pop":"  62449","capital":"0"}},{"type":"Feature","geometry":{"type":"Point","coordinates":[-75.53,39.16]},"properties":{"name":"Dover DE","state":"DE","pop":"  34288","capital":"2"}},{"type":"Feature","geometry":{"type":"Point","coordinates":[-88.02,41.8]},"properties":{"name":"Downers Grove IL","state":"IL","pop":"  49471","capital":"0"}},{"type":"Feature","geometry":{"type":"Point","coordinates":[-118.13,33.94]},"properties":{"name":"Downey CA","state":"CA","pop":" 112762","capital":"0"}},{"type":"Feature","geometry":{"type":"Point","coordinates":[-121.91,37.72]},"properties":{"name":"Dublin CA","state":"CA","pop":"  40791","capital":"0"}},{"type":"Feature","geometry":{"type":"Point","coordinates":[-90.69,42.5]},"properties":{"name":"Dubuque IA","state":"IA","pop":"  57027","capital":"0"}},{"type":"Feature","geometry":{"type":"Point","coordinates":[-92.12,46.78]},"properties":{"name":"Duluth MN","state":"MN","pop":"  84472","capital":"0"}},{"type":"Feature","geometry":{"type":"Point","coordinates":[-76.5,39.27]},"properties":{"name":"Dundalk MD","state":"MD","pop":"  61426","capital":"0"}},{"type":"Feature","geometry":{"type":"Point","coordinates":[-78.91,35.98]},"properties":{"name":"Durham NC","state":"NC","pop":" 208426","capital":"0"}},{"type":"Feature","geometry":{"type":"Point","coordinates":[-70.67,42.04]},"properties":{"name":"Duxbury MA","state":"MA","pop":"  44473","capital":"0"}},{"type":"Feature","geometry":{"type":"Point","coordinates":[-93.16,44.82]},"properties":{"name":"Eagan MN","state":"MN","pop":"  64393","capital":"0"}},{"type":"Feature","geometry":{"type":"Point","coordinates":[-74.42,40.43]},"properties":{"name":"East Brunswick NJ","state":"NJ","pop":"  48799","capital":"0"}},{"type":"Feature","geometry":{"type":"Point","coordinates":[-72.62,41.76]},"properties":{"name":"East Hartford CT","state":"CT","pop":"  50209","capital":"0"}},{"type":"Feature","geometry":{"type":"Point","coordinates":[-82.38,27.98]},"properties":{"name":"East Lake FL","state":"FL","pop":"  47720","capital":"0"}},{"type":"Feature","geometry":{"type":"Point","coordinates":[-84.48,42.74]},"properties":{"name":"East Lansing MI","state":"MI","pop":"  48618","capital":"0"}},{"type":"Feature","geometry":{"type":"Point","coordinates":[-118.17,34.03]},"properties":{"name":"East Los Angeles CA","state":"CA","pop":" 125121","capital":"0"}},{"type":"Feature","geometry":{"type":"Point","coordinates":[-74.21,40.77]},"properties":{"name":"East Orange NJ","state":"NJ","pop":"  68064","capital":"0"}},{"type":"Feature","geometry":{"type":"Point","coordinates":[-71.36,41.8]},"properties":{"name":"East Providence RI","state":"RI","pop":"  50750","capital":"0"}},{"type":"Feature","geometry":{"type":"Point","coordinates":[-91.49,44.82]},"properties":{"name":"Eau Claire WI","state":"WI","pop":"  63049","capital":"0"}},{"type":"Feature","geometry":{"type":"Point","coordinates":[-93.46,44.85]},"properties":{"name":"Eden Prairie MN","state":"MN","pop":"  65076","capital":"0"}},{"type":"Feature","geometry":{"type":"Point","coordinates":[-93.36,44.89]},"properties":{"name":"Edina MN","state":"MN","pop":"  45648","capital":"0"}},{"type":"Feature","geometry":{"type":"Point","coordinates":[-98.16,26.3]},"properties":{"name":"Edinburg TX","state":"TX","pop":"  63193","capital":"0"}},{"type":"Feature","geometry":{"type":"Point","coordinates":[-74.37,40.53]},"properties":{"name":"Edison NJ","state":"NJ","pop":" 103448","capital":"0"}},{"type":"Feature","geometry":{"type":"Point","coordinates":[-97.41,35.67]},"properties":{"name":"Edmond OK","state":"OK","pop":"  75061","capital":"0"}},{"type":"Feature","geometry":{"type":"Point","coordinates":[-122.37,47.83]},"properties":{"name":"Edmonds WA","state":"WA","pop":"  40023","capital":"0"}},{"type":"Feature","geometry":{"type":"Point","coordinates":[-82.5,28.02]},"properties":{"name":"Egypt Lake-Leto FL","state":"FL","pop":"  49538","capital":"0"}},{"type":"Feature","geometry":{"type":"Point","coordinates":[-116.96,32.8]},"properties":{"name":"El Cajon CA","state":"CA","pop":"  94767","capital":"0"}},{"type":"Feature","geometry":{"type":"Point","coordinates":[-112.32,33.6]},"properties":{"name":"El Mirage AZ","state":"AZ","pop":"  42234","capital":"0"}},{"type":"Feature","geometry":{"type":"Point","coordinates":[-118.03,34.07]},"properties":{"name":"El Monte CA","state":"CA","pop":" 127195","capital":"0"}},{"type":"Feature","geometry":{"type":"Point","coordinates":[-106.44,31.85]},"properties":{"name":"El Paso TX","state":"TX","pop":" 603545","capital":"0"}},{"type":"Feature","geometry":{"type":"Point","coordinates":[-76.94,39.41]},"properties":{"name":"Eldersburg MD","state":"MD","pop":"  41194","capital":"0"}},{"type":"Feature","geometry":{"type":"Point","coordinates":[-88.29,42.04]},"properties":{"name":"Elgin IL","state":"IL","pop":"  99411","capital":"0"}},{"type":"Feature","geometry":{"type":"Point","coordinates":[-74.19,40.67]},"properties":{"name":"Elizabeth NJ","state":"NJ","pop":" 124552","capital":"0"}},{"type":"Feature","geometry":{"type":"Point","coordinates":[-121.37,38.4]},"properties":{"name":"Elk Grove CA","state":"CA","pop":"  99467","capital":"0"}},{"type":"Feature","geometry":{"type":"Point","coordinates":[-85.97,41.69]},"properties":{"name":"Elkhart IN","state":"IN","pop":"  51198","capital":"0"}},{"type":"Feature","geometry":{"type":"Point","coordinates":[-76.83,39.27]},"properties":{"name":"Ellicott City MD","state":"MD","pop":"  68337","capital":"0"}},{"type":"Feature","geometry":{"type":"Point","coordinates":[-87.94,41.9]},"properties":{"name":"Elmhurst IL","state":"IL","pop":"  45463","capital":"0"}},{"type":"Feature","geometry":{"type":"Point","coordinates":[-82.11,41.38]},"properties":{"name":"Elyria OH","state":"OH","pop":"  55811","capital":"0"}},{"type":"Feature","geometry":{"type":"Point","coordinates":[-117.26,33.05]},"properties":{"name":"Encinitas CA","state":"CA","pop":"  62273","capital":"0"}},{"type":"Feature","geometry":{"type":"Point","coordinates":[-97.87,36.41]},"properties":{"name":"Enid OK","state":"OK","pop":"  45935","capital":"0"}},{"type":"Feature","geometry":{"type":"Point","coordinates":[-80.09,42.13]},"properties":{"name":"Erie PA","state":"PA","pop":"  98968","capital":"0"}},{"type":"Feature","geometry":{"type":"Point","coordinates":[-117.07,33.14]},"properties":{"name":"Escondido CA","state":"CA","pop":" 137823","capital":"0"}},{"type":"Feature","geometry":{"type":"Point","coordinates":[-81.52,41.59]},"properties":{"name":"Euclid OH","state":"OH","pop":"  49602","capital":"0"}},{"type":"Feature","geometry":{"type":"Point","coordinates":[-123.11,44.05]},"properties":{"name":"Eugene OR","state":"OR","pop":" 146483","capital":"0"}},{"type":"Feature","geometry":{"type":"Point","coordinates":[-97.08,32.85]},"properties":{"name":"Euless TX","state":"TX","pop":"  54705","capital":"0"}},{"type":"Feature","geometry":{"type":"Point","coordinates":[-87.69,42.05]},"properties":{"name":"Evanston IL","state":"IL","pop":"  75419","capital":"0"}},{"type":"Feature","geometry":{"type":"Point","coordinates":[-87.54,37.98]},"properties":{"name":"Evansville IN","state":"IN","pop":" 114237","capital":"0"}},{"type":"Feature","geometry":{"type":"Point","coordinates":[-122.2,47.96]},"properties":{"name":"Everett WA","state":"WA","pop":"  97575","capital":"0"}},{"type":"Feature","geometry":{"type":"Point","coordinates":[-122.04,38.25]},"properties":{"name":"Fairfield CA","state":"CA","pop":" 107749","capital":"0"}},{"type":"Feature","geometry":{"type":"Point","coordinates":[-73.26,41.13]},"properties":{"name":"Fairfield CT","state":"CT","pop":"  59352","capital":"0"}},{"type":"Feature","geometry":{"type":"Point","coordinates":[-84.54,39.33]},"properties":{"name":"Fairfield OH","state":"OH","pop":"  43279","capital":"0"}},{"type":"Feature","geometry":{"type":"Point","coordinates":[-71.11,41.71]},"properties":{"name":"Fall River MA","state":"MA","pop":"  93128","capital":"0"}},{"type":"Feature","geometry":{"type":"Point","coordinates":[-70.6,41.55]},"properties":{"name":"Falmouth MA","state":"MA","pop":"  90561","capital":"0"}},{"type":"Feature","geometry":{"type":"Point","coordinates":[-96.82,46.88]},"properties":{"name":"Fargo ND","state":"ND","pop":"  92396","capital":"0"}},{"type":"Feature","geometry":{"type":"Point","coordinates":[-83.38,42.49]},"properties":{"name":"Farmington Hills MI","state":"MI","pop":"  79530","capital":"0"}},{"type":"Feature","geometry":{"type":"Point","coordinates":[-108.19,36.75]},"properties":{"name":"Farmington NM","state":"NM","pop":"  44278","capital":"0"}},{"type":"Feature","geometry":{"type":"Point","coordinates":[-94.16,36.07]},"properties":{"name":"Fayetteville AR","state":"AR","pop":"  66288","capital":"0"}},{"type":"Feature","geometry":{"type":"Point","coordinates":[-78.9,35.07]},"properties":{"name":"Fayetteville NC","state":"NC","pop":" 124919","capital":"0"}},{"type":"Feature","geometry":{"type":"Point","coordinates":[-122.34,47.31]},"properties":{"name":"Federal Way WA","state":"WA","pop":"  80336","capital":"0"}},{"type":"Feature","geometry":{"type":"Point","coordinates":[-83.64,41.04]},"properties":{"name":"Findlay OH","state":"OH","pop":"  40571","capital":"0"}},{"type":"Feature","geometry":{"type":"Point","coordinates":[-86.02,39.95]},"properties":{"name":"Fishers IN","state":"IN","pop":"  58678","capital":"0"}},{"type":"Feature","geometry":{"type":"Point","coordinates":[-71.82,42.59]},"properties":{"name":"Fitchburg MA","state":"MA","pop":"  40565","capital":"0"}},{"type":"Feature","geometry":{"type":"Point","coordinates":[-111.62,35.19]},"properties":{"name":"Flagstaff AZ","state":"AZ","pop":"  58490","capital":"0"}},{"type":"Feature","geometry":{"type":"Point","coordinates":[-83.69,43.02]},"properties":{"name":"Flint MI","state":"MI","pop":" 115691","capital":"0"}},{"type":"Feature","geometry":{"type":"Point","coordinates":[-118.24,33.97]},"properties":{"name":"Florence-Graham CA","state":"CA","pop":"  63012","capital":"0"}},{"type":"Feature","geometry":{"type":"Point","coordinates":[-90.32,38.8]},"properties":{"name":"Florissant MO","state":"MO","pop":"  51644","capital":"0"}},{"type":"Feature","geometry":{"type":"Point","coordinates":[-97.09,33.03]},"properties":{"name":"Flower Mound TX","state":"TX","pop":"  70449","capital":"0"}},{"type":"Feature","geometry":{"type":"Point","coordinates":[-121.15,38.68]},"properties":{"name":"Folsom CA","state":"CA","pop":"  71775","capital":"0"}},{"type":"Feature","geometry":{"type":"Point","coordinates":[-88.45,43.77]},"properties":{"name":"Fond du Lac WI","state":"WI","pop":"  41787","capital":"0"}},{"type":"Feature","geometry":{"type":"Point","coordinates":[-117.46,34.1]},"properties":{"name":"Fontana CA","state":"CA","pop":" 178257","capital":"0"}},{"type":"Feature","geometry":{"type":"Point","coordinates":[-105.07,40.56]},"properties":{"name":"Fort Collins CO","state":"CO","pop":" 131505","capital":"0"}},{"type":"Feature","geometry":{"type":"Point","coordinates":[-80.14,26.14]},"properties":{"name":"Fort Lauderdale FL","state":"FL","pop":" 173597","capital":"0"}},{"type":"Feature","geometry":{"type":"Point","coordinates":[-81.85,26.63]},"properties":{"name":"Fort Myers FL","state":"FL","pop":"  53961","capital":"0"}},{"type":"Feature","geometry":{"type":"Point","coordinates":[-94.38,35.37]},"properties":{"name":"Fort Smith AR","state":"AR","pop":"  82304","capital":"0"}},{"type":"Feature","geometry":{"type":"Point","coordinates":[-85.14,41.07]},"properties":{"name":"Fort Wayne IN","state":"IN","pop":" 231147","capital":"0"}},{"type":"Feature","geometry":{"type":"Point","coordinates":[-97.34,32.75]},"properties":{"name":"Fort Worth TX","state":"TX","pop":" 633849","capital":"0"}},{"type":"Feature","geometry":{"type":"Point","coordinates":[-117.95,33.71]},"properties":{"name":"Fountain Valley CA","state":"CA","pop":"  56318","capital":"0"}},{"type":"Feature","geometry":{"type":"Point","coordinates":[-80.35,25.77]},"properties":{"name":"Fountainbleau FL","state":"FL","pop":"  67124","capital":"0"}},{"type":"Feature","geometry":{"type":"Point","coordinates":[-71.44,42.31]},"properties":{"name":"Framingham MA","state":"MA","pop":"  65103","capital":"0"}},{"type":"Feature","geometry":{"type":"Point","coordinates":[-77.15,38.76]},"properties":{"name":"Franconia VA","state":"VA","pop":"  42105","capital":"0"}},{"type":"Feature","geometry":{"type":"Point","coordinates":[-84.86,38.2]},"properties":{"name":"Frankfort KY","state":"KY","pop":"  27210","capital":"2"}},{"type":"Feature","geometry":{"type":"Point","coordinates":[-86.84,35.93]},"properties":{"name":"Franklin TN","state":"TN","pop":"  51478","capital":"0"}},{"type":"Feature","geometry":{"type":"Point","coordinates":[-77.42,39.43]},"properties":{"name":"Frederick MD","state":"MD","pop":"  58271","capital":"0"}},{"type":"Feature","geometry":{"type":"Point","coordinates":[-73.58,40.65]},"properties":{"name":"Freeport NY","state":"NY","pop":"  43377","capital":"0"}},{"type":"Feature","geometry":{"type":"Point","coordinates":[-122,37.53]},"properties":{"name":"Fremont CA","state":"CA","pop":" 202574","capital":"0"}},{"type":"Feature","geometry":{"type":"Point","coordinates":[-119.79,36.78]},"properties":{"name":"Fresno CA","state":"CA","pop":" 472517","capital":"0"}},{"type":"Feature","geometry":{"type":"Point","coordinates":[-96.81,33.14]},"properties":{"name":"Frisco TX","state":"TX","pop":"  80192","capital":"0"}},{"type":"Feature","geometry":{"type":"Point","coordinates":[-117.93,33.88]},"properties":{"name":"Fullerton CA","state":"CA","pop":" 137126","capital":"0"}},{"type":"Feature","geometry":{"type":"Point","coordinates":[-82.34,29.67]},"properties":{"name":"Gainesville FL","state":"FL","pop":" 127933","capital":"0"}},{"type":"Feature","geometry":{"type":"Point","coordinates":[-77.22,39.14]},"properties":{"name":"Gaithersburg MD","state":"MD","pop":"  61649","capital":"0"}},{"type":"Feature","geometry":{"type":"Point","coordinates":[-94.81,29.3]},"properties":{"name":"Galveston TX","state":"TX","pop":"  56205","capital":"0"}},{"type":"Feature","geometry":{"type":"Point","coordinates":[-117.96,33.78]},"properties":{"name":"Garden Grove CA","state":"CA","pop":" 167647","capital":"0"}},{"type":"Feature","geometry":{"type":"Point","coordinates":[-118.3,33.89]},"properties":{"name":"Gardena CA","state":"CA","pop":"  61550","capital":"0"}},{"type":"Feature","geometry":{"type":"Point","coordinates":[-96.63,32.91]},"properties":{"name":"Garland TX","state":"TX","pop":" 217609","capital":"0"}},{"type":"Feature","geometry":{"type":"Point","coordinates":[-87.34,41.6]},"properties":{"name":"Gary IN","state":"IN","pop":"  96950","capital":"0"}},{"type":"Feature","geometry":{"type":"Point","coordinates":[-81.17,35.25]},"properties":{"name":"Gastonia NC","state":"NC","pop":"  67937","capital":"0"}},{"type":"Feature","geometry":{"type":"Point","coordinates":[-97.69,30.65]},"properties":{"name":"Georgetown TX","state":"TX","pop":"  41398","capital":"0"}},{"type":"Feature","geometry":{"type":"Point","coordinates":[-77.26,39.18]},"properties":{"name":"Germantown MD","state":"MD","pop":"  66720","capital":"0"}},{"type":"Feature","geometry":{"type":"Point","coordinates":[-111.76,33.33]},"properties":{"name":"Gilbert AZ","state":"AZ","pop":" 186332","capital":"0"}},{"type":"Feature","geometry":{"type":"Point","coordinates":[-121.58,37.01]},"properties":{"name":"Gilroy CA","state":"CA","pop":"  46107","capital":"0"}},{"type":"Feature","geometry":{"type":"Point","coordinates":[-76.6,39.17]},"properties":{"name":"Glen Burnie MD","state":"MD","pop":"  40546","capital":"0"}},{"type":"Feature","geometry":{"type":"Point","coordinates":[-112.2,33.58]},"properties":{"name":"Glendale AZ","state":"AZ","pop":" 244734","capital":"0"}},{"type":"Feature","geometry":{"type":"Point","coordinates":[-118.25,34.18]},"properties":{"name":"Glendale CA","state":"CA","pop":" 204747","capital":"0"}},{"type":"Feature","geometry":{"type":"Point","coordinates":[-117.84,34.15]},"properties":{"name":"Glendora CA","state":"CA","pop":"  51929","capital":"0"}},{"type":"Feature","geometry":{"type":"Point","coordinates":[-87.82,42.08]},"properties":{"name":"Glenview IL","state":"IL","pop":"  47479","capital":"0"}},{"type":"Feature","geometry":{"type":"Point","coordinates":[-112.41,33.35]},"properties":{"name":"Goodyear AZ","state":"AZ","pop":"  49748","capital":"0"}},{"type":"Feature","geometry":{"type":"Point","coordinates":[-97.07,47.92]},"properties":{"name":"Grand Forks ND","state":"ND","pop":"  48195","capital":"0"}},{"type":"Feature","geometry":{"type":"Point","coordinates":[-98.37,40.92]},"properties":{"name":"Grand Island NE","state":"NE","pop":"  45052","capital":"0"}},{"type":"Feature","geometry":{"type":"Point","coordinates":[-108.55,39.09]},"properties":{"name":"Grand Junction CO","state":"CO","pop":"  46350","capital":"0"}},{"type":"Feature","geometry":{"type":"Point","coordinates":[-97.02,32.69]},"properties":{"name":"Grand Prairie TX","state":"TX","pop":" 144018","capital":"0"}},{"type":"Feature","geometry":{"type":"Point","coordinates":[-85.66,42.96]},"properties":{"name":"Grand Rapids MI","state":"MI","pop":" 193006","capital":"0"}},{"type":"Feature","geometry":{"type":"Point","coordinates":[-97.07,32.93]},"properties":{"name":"Grapevine TX","state":"TX","pop":"  51334","capital":"0"}},{"type":"Feature","geometry":{"type":"Point","coordinates":[-111.29,47.5]},"properties":{"name":"Great Falls MT","state":"MT","pop":"  55908","capital":"0"}},{"type":"Feature","geometry":{"type":"Point","coordinates":[-82.52,28.07]},"properties":{"name":"Greater Carrollwood FL","state":"FL","pop":"  42586","capital":"0"}},{"type":"Feature","geometry":{"type":"Point","coordinates":[-104.74,40.42]},"properties":{"name":"Greeley CO","state":"CO","pop":"  88957","capital":"0"}},{"type":"Feature","geometry":{"type":"Point","coordinates":[-87.99,44.52]},"properties":{"name":"Green Bay WI","state":"WI","pop":" 100616","capital":"0"}},{"type":"Feature","geometry":{"type":"Point","coordinates":[-79.83,36.08]},"properties":{"name":"Greensboro NC","state":"NC","pop":" 233342","capital":"0"}},{"type":"Feature","geometry":{"type":"Point","coordinates":[-77.37,35.6]},"properties":{"name":"Greenville NC","state":"NC","pop":"  72617","capital":"0"}},{"type":"Feature","geometry":{"type":"Point","coordinates":[-82.37,34.84]},"properties":{"name":"Greenville SC","state":"SC","pop":"  55421","capital":"0"}},{"type":"Feature","geometry":{"type":"Point","coordinates":[-73.59,41.04]},"properties":{"name":"Greenwich CT","state":"CT","pop":"  64100","capital":"0"}},{"type":"Feature","geometry":{"type":"Point","coordinates":[-86.11,39.62]},"properties":{"name":"Greenwood IN","state":"IN","pop":"  42298","capital":"0"}},{"type":"Feature","geometry":{"type":"Point","coordinates":[-122.44,45.5]},"properties":{"name":"Gresham OR","state":"OR","pop":" 100674","capital":"0"}},{"type":"Feature","geometry":{"type":"Point","coordinates":[-89.07,30.39]},"properties":{"name":"Gulfport MS","state":"MS","pop":"  71400","capital":"0"}},{"type":"Feature","geometry":{"type":"Point","coordinates":[-117.97,34]},"properties":{"name":"Hacienda Heights CA","state":"CA","pop":"  54439","capital":"0"}},{"type":"Feature","geometry":{"type":"Point","coordinates":[-74.05,40.89]},"properties":{"name":"Hackensack NJ","state":"NJ","pop":"  43923","capital":"0"}},{"type":"Feature","geometry":{"type":"Point","coordinates":[-97.27,32.82]},"properties":{"name":"Haltom City TX","state":"TX","pop":"  42053","capital":"0"}},{"type":"Feature","geometry":{"type":"Point","coordinates":[-72.89,41.37]},"properties":{"name":"Hamden CT","state":"CT","pop":"  60388","capital":"0"}},{"type":"Feature","geometry":{"type":"Point","coordinates":[-74.39,40.09]},"properties":{"name":"Hamilton NJ","state":"NJ","pop":"  91245","capital":"0"}},{"type":"Feature","geometry":{"type":"Point","coordinates":[-84.56,39.39]},"properties":{"name":"Hamilton OH","state":"OH","pop":"  61527","capital":"0"}},{"type":"Feature","geometry":{"type":"Point","coordinates":[-87.49,41.62]},"properties":{"name":"Hammond IN","state":"IN","pop":"  78051","capital":"0"}},{"type":"Feature","geometry":{"type":"Point","coordinates":[-76.29,37.05]},"properties":{"name":"Hampton VA","state":"VA","pop":" 148201","capital":"0"}},{"type":"Feature","geometry":{"type":"Point","coordinates":[-119.65,36.33]},"properties":{"name":"Hanford CA","state":"CA","pop":"  48892","capital":"0"}},{"type":"Feature","geometry":{"type":"Point","coordinates":[-97.69,26.2]},"properties":{"name":"Harlingen TX","state":"TX","pop":"  64198","capital":"0"}},{"type":"Feature","geometry":{"type":"Point","coordinates":[-76.88,40.28]},"properties":{"name":"Harrisburg PA","state":"PA","pop":"  47576","capital":"2"}},{"type":"Feature","geometry":{"type":"Point","coordinates":[-78.87,38.44]},"properties":{"name":"Harrisonburg VA","state":"VA","pop":"  41992","capital":"0"}},{"type":"Feature","geometry":{"type":"Point","coordinates":[-72.68,41.77]},"properties":{"name":"Hartford CT","state":"CT","pop":" 123836","capital":"2"}},{"type":"Feature","geometry":{"type":"Point","coordinates":[-89.31,31.31]},"properties":{"name":"Hattiesburg MS","state":"MS","pop":"  48728","capital":"0"}},{"type":"Feature","geometry":{"type":"Point","coordinates":[-71.09,42.78]},"properties":{"name":"Haverhill MA","state":"MA","pop":"  61928","capital":"0"}},{"type":"Feature","geometry":{"type":"Point","coordinates":[-118.35,33.91]},"properties":{"name":"Hawthorne CA","state":"CA","pop":"  87677","capital":"0"}},{"type":"Feature","geometry":{"type":"Point","coordinates":[-122.1,37.63]},"properties":{"name":"Hayward CA","state":"CA","pop":" 140704","capital":"0"}},{"type":"Feature","geometry":{"type":"Point","coordinates":[-112.03,46.6]},"properties":{"name":"Helena MT","state":"MT","pop":"  27383","capital":"2"}},{"type":"Feature","geometry":{"type":"Point","coordinates":[-117,33.73]},"properties":{"name":"Hemet CA","state":"CA","pop":"  71300","capital":"0"}},{"type":"Feature","geometry":{"type":"Point","coordinates":[-73.62,40.7]},"properties":{"name":"Hempstead NY","state":"NY","pop":"  52769","capital":"0"}},{"type":"Feature","geometry":{"type":"Point","coordinates":[-115,36.03]},"properties":{"name":"Henderson NV","state":"NV","pop":" 255646","capital":"0"}},{"type":"Feature","geometry":{"type":"Point","coordinates":[-86.6,36.29]},"properties":{"name":"Hendersonville TN","state":"TN","pop":"  45358","capital":"0"}},{"type":"Feature","geometry":{"type":"Point","coordinates":[-117.3,34.42]},"properties":{"name":"Hesperia CA","state":"CA","pop":"  75966","capital":"0"}},{"type":"Feature","geometry":{"type":"Point","coordinates":[-80.3,25.86]},"properties":{"name":"Hialeah FL","state":"FL","pop":" 224644","capital":"0"}},{"type":"Feature","geometry":{"type":"Point","coordinates":[-81.33,35.74]},"properties":{"name":"Hickory NC","state":"NC","pop":"  40968","capital":"0"}},{"type":"Feature","geometry":{"type":"Point","coordinates":[-73.53,40.76]},"properties":{"name":"Hicksville NY","state":"NY","pop":"  41452","capital":"0"}},{"type":"Feature","geometry":{"type":"Point","coordinates":[-80,35.98]},"properties":{"name":"High Point NC","state":"NC","pop":"  96011","capital":"0"}},{"type":"Feature","geometry":{"type":"Point","coordinates":[-117.19,34.12]},"properties":{"name":"Highland CA","state":"CA","pop":"  52692","capital":"0"}},{"type":"Feature","geometry":{"type":"Point","coordinates":[-104.97,39.55]},"properties":{"name":"Highlands Ranch CO","state":"CO","pop":" 109009","capital":"0"}},{"type":"Feature","geometry":{"type":"Point","coordinates":[-122.94,45.53]},"properties":{"name":"Hillsboro OR","state":"OR","pop":"  85046","capital":"0"}},{"type":"Feature","geometry":{"type":"Point","coordinates":[-155.09,19.7]},"properties":{"name":"Hilo HI","state":"HI","pop":"  43466","capital":"0"}},{"type":"Feature","geometry":{"type":"Point","coordinates":[-70.89,42.24]},"properties":{"name":"Hingham MS","state":"MS","pop":"  41654","capital":"0"}},{"type":"Feature","geometry":{"type":"Point","coordinates":[-74.03,40.74]},"properties":{"name":"Hoboken NJ","state":"NJ","pop":"  39972","capital":"0"}},{"type":"Feature","geometry":{"type":"Point","coordinates":[-88.14,42.06]},"properties":{"name":"Hoffman Estates IL","state":"IL","pop":"  50674","capital":"0"}},{"type":"Feature","geometry":{"type":"Point","coordinates":[-80.16,26.03]},"properties":{"name":"Hollywood FL","state":"FL","pop":" 145877","capital":"0"}},{"type":"Feature","geometry":{"type":"Point","coordinates":[-72.64,42.21]},"properties":{"name":"Holyoke MA","state":"MA","pop":"  40143","capital":"0"}},{"type":"Feature","geometry":{"type":"Point","coordinates":[-157.8,21.32]},"properties":{"name":"Honolulu HI","state":"HI","pop":" 386345","capital":"2"}},{"type":"Feature","geometry":{"type":"Point","coordinates":[-86.82,33.38]},"properties":{"name":"Hoover AL","state":"AL","pop":"  67576","capital":"0"}},{"type":"Feature","geometry":{"type":"Point","coordinates":[-95.39,29.77]},"properties":{"name":"Houston TX","state":"TX","pop":"2043005","capital":"0"}},{"type":"Feature","geometry":{"type":"Point","coordinates":[-80.86,35.41]},"properties":{"name":"Huntersville NC","state":"NC","pop":"  43970","capital":"0"}},{"type":"Feature","geometry":{"type":"Point","coordinates":[-118.01,33.69]},"properties":{"name":"Huntington Beach CA","state":"CA","pop":" 197124","capital":"0"}},{"type":"Feature","geometry":{"type":"Point","coordinates":[-118.22,33.98]},"properties":{"name":"Huntington Park CA","state":"CA","pop":"  64308","capital":"0"}},{"type":"Feature","geometry":{"type":"Point","coordinates":[-82.43,38.41]},"properties":{"name":"Huntington WV","state":"WV","pop":"  47905","capital":"0"}},{"type":"Feature","geometry":{"type":"Point","coordinates":[-86.63,34.71]},"properties":{"name":"Huntsville AL","state":"AL","pop":" 169155","capital":"0"}},{"type":"Feature","geometry":{"type":"Point","coordinates":[-97.91,38.07]},"properties":{"name":"Hutchinson KS","state":"KS","pop":"  40386","capital":"0"}},{"type":"Feature","geometry":{"type":"Point","coordinates":[-112.03,43.49]},"properties":{"name":"Idaho Falls ID","state":"ID","pop":"  52431","capital":"0"}},{"type":"Feature","geometry":{"type":"Point","coordinates":[-94.35,39.09]},"properties":{"name":"Independence MO","state":"MO","pop":" 110124","capital":"0"}},{"type":"Feature","geometry":{"type":"Point","coordinates":[-86.15,39.78]},"properties":{"name":"Indianapolis IN","state":"IN","pop":" 771725","capital":"2"}},{"type":"Feature","geometry":{"type":"Point","coordinates":[-116.23,33.72]},"properties":{"name":"Indio CA","state":"CA","pop":"  69736","capital":"0"}},{"type":"Feature","geometry":{"type":"Point","coordinates":[-118.34,33.96]},"properties":{"name":"Inglewood CA","state":"CA","pop":" 116797","capital":"0"}},{"type":"Feature","geometry":{"type":"Point","coordinates":[-91.54,41.66]},"properties":{"name":"Iowa City IA","state":"IA","pop":"  64490","capital":"0"}},{"type":"Feature","geometry":{"type":"Point","coordinates":[-77.57,43.21]},"properties":{"name":"Irondequoit NY","state":"NY","pop":"  51825","capital":"0"}},{"type":"Feature","geometry":{"type":"Point","coordinates":[-117.8,33.66]},"properties":{"name":"Irvine CA","state":"CA","pop":" 199755","capital":"0"}},{"type":"Feature","geometry":{"type":"Point","coordinates":[-96.97,32.86]},"properties":{"name":"Irving TX","state":"TX","pop":" 194407","capital":"0"}},{"type":"Feature","geometry":{"type":"Point","coordinates":[-74.23,40.72]},"properties":{"name":"Irvington NJ","state":"NJ","pop":"  61373","capital":"0"}},{"type":"Feature","geometry":{"type":"Point","coordinates":[-90.21,32.32]},"properties":{"name":"Jackson MS","state":"MS","pop":" 175085","capital":"2"}},{"type":"Feature","geometry":{"type":"Point","coordinates":[-88.83,35.63]},"properties":{"name":"Jackson TN","state":"TN","pop":"  62552","capital":"0"}},{"type":"Feature","geometry":{"type":"Point","coordinates":[-81.66,30.33]},"properties":{"name":"Jacksonville FL","state":"FL","pop":" 809874","capital":"0"}},{"type":"Feature","geometry":{"type":"Point","coordinates":[-77.4,34.76]},"properties":{"name":"Jacksonville NC","state":"NC","pop":"  68201","capital":"0"}},{"type":"Feature","geometry":{"type":"Point","coordinates":[-89.02,42.68]},"properties":{"name":"Janesville WI","state":"WI","pop":"  61952","capital":"0"}},{"type":"Feature","geometry":{"type":"Point","coordinates":[-92.19,38.57]},"properties":{"name":"Jefferson City MO","state":"MO","pop":"  39062","capital":"2"}},{"type":"Feature","geometry":{"type":"Point","coordinates":[-74.06,40.71]},"properties":{"name":"Jersey City NJ","state":"NJ","pop":" 237125","capital":"0"}},{"type":"Feature","geometry":{"type":"Point","coordinates":[-82.37,36.33]},"properties":{"name":"Johnson City TN","state":"TN","pop":"  59183","capital":"0"}},{"type":"Feature","geometry":{"type":"Point","coordinates":[-88.12,41.53]},"properties":{"name":"Joliet IL","state":"IL","pop":" 141246","capital":"0"}},{"type":"Feature","geometry":{"type":"Point","coordinates":[-90.69,35.82]},"properties":{"name":"Jonesboro AR","state":"AR","pop":"  59233","capital":"0"}},{"type":"Feature","geometry":{"type":"Point","coordinates":[-94.5,37.08]},"properties":{"name":"Joplin MO","state":"MO","pop":"  47060","capital":"0"}},{"type":"Feature","geometry":{"type":"Point","coordinates":[-134.42,58.3]},"properties":{"name":"Juneau AK","state":"AK","pop":"  31187","capital":"2"}},{"type":"Feature","geometry":{"type":"Point","coordinates":[-80.1,26.92]},"properties":{"name":"Jupiter FL","state":"FL","pop":"  51126","capital":"0"}},{"type":"Feature","geometry":{"type":"Point","coordinates":[-85.59,42.27]},"properties":{"name":"Kalamazoo MI","state":"MI","pop":"  73504","capital":"0"}},{"type":"Feature","geometry":{"type":"Point","coordinates":[-94.73,39.12]},"properties":{"name":"Kansas City KS","state":"KS","pop":" 143402","capital":"0"}},{"type":"Feature","geometry":{"type":"Point","coordinates":[-94.55,39.12]},"properties":{"name":"Kansas City MO","state":"MO","pop":" 441833","capital":"0"}},{"type":"Feature","geometry":{"type":"Point","coordinates":[-97.23,32.93]},"properties":{"name":"Keller TX","state":"TX","pop":"  39928","capital":"0"}},{"type":"Feature","geometry":{"type":"Point","coordinates":[-80.41,25.71]},"properties":{"name":"Kendale Lakes FL","state":"FL","pop":"  62715","capital":"0"}},{"type":"Feature","geometry":{"type":"Point","coordinates":[-80.34,25.67]},"properties":{"name":"Kendall FL","state":"FL","pop":"  84549","capital":"0"}},{"type":"Feature","geometry":{"type":"Point","coordinates":[-90.25,29.99]},"properties":{"name":"Kenner LA","state":"LA","pop":"  69514","capital":"0"}},{"type":"Feature","geometry":{"type":"Point","coordinates":[-119.17,46.2]},"properties":{"name":"Kennewick WA","state":"WA","pop":"  63593","capital":"0"}},{"type":"Feature","geometry":{"type":"Point","coordinates":[-87.85,42.58]},"properties":{"name":"Kenosha WI","state":"WI","pop":"  94673","capital":"0"}},{"type":"Feature","geometry":{"type":"Point","coordinates":[-122.24,47.39]},"properties":{"name":"Kent WA","state":"WA","pop":"  82896","capital":"0"}},{"type":"Feature","geometry":{"type":"Point","coordinates":[-85.59,42.88]},"properties":{"name":"Kentwood MI","state":"MI","pop":"  47421","capital":"0"}},{"type":"Feature","geometry":{"type":"Point","coordinates":[-84.15,39.7]},"properties":{"name":"Kettering OH","state":"OH","pop":"  55473","capital":"0"}},{"type":"Feature","geometry":{"type":"Point","coordinates":[-97.72,31.1]},"properties":{"name":"Killeen TX","state":"TX","pop":" 106441","capital":"0"}},{"type":"Feature","geometry":{"type":"Point","coordinates":[-82.56,36.53]},"properties":{"name":"Kingsport TN","state":"TN","pop":"  43776","capital":"0"}},{"type":"Feature","geometry":{"type":"Point","coordinates":[-122.19,47.68]},"properties":{"name":"Kirkland WA","state":"WA","pop":"  45913","capital":"0"}},{"type":"Feature","geometry":{"type":"Point","coordinates":[-81.41,28.3]},"properties":{"name":"Kissimmee FL","state":"FL","pop":"  67085","capital":"0"}},{"type":"Feature","geometry":{"type":"Point","coordinates":[-83.95,35.97]},"properties":{"name":"Knoxville TN","state":"TN","pop":" 172000","capital":"0"}},{"type":"Feature","geometry":{"type":"Point","coordinates":[-86.13,40.48]},"properties":{"name":"Kokomo IN","state":"IN","pop":"  46130","capital":"0"}},{"type":"Feature","geometry":{"type":"Point","coordinates":[-91.23,43.83]},"properties":{"name":"La Crosse WI","state":"WI","pop":"  50147","capital":"0"}},{"type":"Feature","geometry":{"type":"Point","coordinates":[-117.95,33.93]},"properties":{"name":"La Habra CA","state":"CA","pop":"  59799","capital":"0"}},{"type":"Feature","geometry":{"type":"Point","coordinates":[-117.02,32.77]},"properties":{"name":"La Mesa CA","state":"CA","pop":"  53942","capital":"0"}},{"type":"Feature","geometry":{"type":"Point","coordinates":[-118.01,33.9]},"properties":{"name":"La Mirada CA","state":"CA","pop":"  50598","capital":"0"}},{"type":"Feature","geometry":{"type":"Point","coordinates":[-117.95,34.03]},"properties":{"name":"La Puente CA","state":"CA","pop":"  42901","capital":"0"}},{"type":"Feature","geometry":{"type":"Point","coordinates":[-116.29,33.67]},"properties":{"name":"La Quinta CA","state":"CA","pop":"  41239","capital":"0"}},{"type":"Feature","geometry":{"type":"Point","coordinates":[-86.87,40.41]},"properties":{"name":"Lafayette IN","state":"IN","pop":"  62589","capital":"0"}},{"type":"Feature","geometry":{"type":"Point","coordinates":[-92.03,30.22]},"properties":{"name":"Lafayette LA","state":"LA","pop":" 112317","capital":"0"}},{"type":"Feature","geometry":{"type":"Point","coordinates":[-121.42,38.42]},"properties":{"name":"Laguna CA","state":"CA","pop":"  49714","capital":"0"}},{"type":"Feature","geometry":{"type":"Point","coordinates":[-117.7,33.53]},"properties":{"name":"Laguna Niguel CA","state":"CA","pop":"  67009","capital":"0"}},{"type":"Feature","geometry":{"type":"Point","coordinates":[-93.2,30.21]},"properties":{"name":"Lake Charles LA","state":"LA","pop":"  69910","capital":"0"}},{"type":"Feature","geometry":{"type":"Point","coordinates":[-117.32,33.67]},"properties":{"name":"Lake Elsinore CA","state":"CA","pop":"  43336","capital":"0"}},{"type":"Feature","geometry":{"type":"Point","coordinates":[-117.7,33.63]},"properties":{"name":"Lake Forest CA","state":"CA","pop":"  76859","capital":"0"}},{"type":"Feature","geometry":{"type":"Point","coordinates":[-114.31,34.5]},"properties":{"name":"Lake Havasu City AZ","state":"AZ","pop":"  57685","capital":"0"}},{"type":"Feature","geometry":{"type":"Point","coordinates":[-82.47,28.07]},"properties":{"name":"Lake Magdalene FL","state":"FL","pop":"  40413","capital":"0"}},{"type":"Feature","geometry":{"type":"Point","coordinates":[-81.96,28.04]},"properties":{"name":"Lakeland FL","state":"FL","pop":"  92011","capital":"0"}},{"type":"Feature","geometry":{"type":"Point","coordinates":[-93.24,44.68]},"properties":{"name":"Lakeville MN","state":"MN","pop":"  52745","capital":"0"}},{"type":"Feature","geometry":{"type":"Point","coordinates":[-118.12,33.85]},"properties":{"name":"Lakewood CA","state":"CA","pop":"  82632","capital":"0"}},{"type":"Feature","geometry":{"type":"Point","coordinates":[-105.11,39.7]},"properties":{"name":"Lakewood CO","state":"CO","pop":" 140154","capital":"0"}},{"type":"Feature","geometry":{"type":"Point","coordinates":[-74.21,40.09]},"properties":{"name":"Lakewood NJ","state":"NJ","pop":"  43436","capital":"0"}},{"type":"Feature","geometry":{"type":"Point","coordinates":[-81.8,41.48]},"properties":{"name":"Lakewood OH","state":"OH","pop":"  51999","capital":"0"}},{"type":"Feature","geometry":{"type":"Point","coordinates":[-122.53,47.16]},"properties":{"name":"Lakewood WA","state":"WA","pop":"  58995","capital":"0"}},{"type":"Feature","geometry":{"type":"Point","coordinates":[-118.18,34.69]},"properties":{"name":"Lancaster CA","state":"CA","pop":" 131779","capital":"0"}},{"type":"Feature","geometry":{"type":"Point","coordinates":[-76.3,40.04]},"properties":{"name":"Lancaster PA","state":"PA","pop":"  54390","capital":"0"}},{"type":"Feature","geometry":{"type":"Point","coordinates":[-84.55,42.71]},"properties":{"name":"Lansing MI","state":"MI","pop":" 117236","capital":"2"}},{"type":"Feature","geometry":{"type":"Point","coordinates":[-99.49,27.53]},"properties":{"name":"Laredo TX","state":"TX","pop":" 218041","capital":"0"}},{"type":"Feature","geometry":{"type":"Point","coordinates":[-82.78,27.91]},"properties":{"name":"Largo FL","state":"FL","pop":"  71688","capital":"0"}},{"type":"Feature","geometry":{"type":"Point","coordinates":[-106.76,32.34]},"properties":{"name":"Las Cruces NM","state":"NM","pop":"  81473","capital":"0"}},{"type":"Feature","geometry":{"type":"Point","coordinates":[-115.22,36.21]},"properties":{"name":"Las Vegas NV","state":"NV","pop":" 553807","capital":"0"}},{"type":"Feature","geometry":{"type":"Point","coordinates":[-80.23,26.17]},"properties":{"name":"Lauderhill FL","state":"FL","pop":"  60308","capital":"0"}},{"type":"Feature","geometry":{"type":"Point","coordinates":[-85.99,39.87]},"properties":{"name":"Lawrence IN","state":"IN","pop":"  42451","capital":"0"}},{"type":"Feature","geometry":{"type":"Point","coordinates":[-95.26,38.96]},"properties":{"name":"Lawrence KS","state":"KS","pop":"  83948","capital":"0"}},{"type":"Feature","geometry":{"type":"Point","coordinates":[-71.16,42.7]},"properties":{"name":"Lawrence MA","state":"MA","pop":"  72669","capital":"0"}},{"type":"Feature","geometry":{"type":"Point","coordinates":[-98.42,34.6]},"properties":{"name":"Lawton OK","state":"OK","pop":"  91453","capital":"0"}},{"type":"Feature","geometry":{"type":"Point","coordinates":[-111.95,41.08]},"properties":{"name":"Layton UT","state":"UT","pop":"  63096","capital":"0"}},{"type":"Feature","geometry":{"type":"Point","coordinates":[-95.11,29.49]},"properties":{"name":"League City TX","state":"TX","pop":"  65696","capital":"0"}},{"type":"Feature","geometry":{"type":"Point","coordinates":[-94.38,38.92]},"properties":{"name":"Lee's Summit MO","state":"MO","pop":"  83837","capital":"0"}},{"type":"Feature","geometry":{"type":"Point","coordinates":[-81.63,26.6]},"properties":{"name":"Lehigh Acres FL","state":"FL","pop":"  52474","capital":"0"}},{"type":"Feature","geometry":{"type":"Point","coordinates":[-94.79,38.96]},"properties":{"name":"Lenexa KS","state":"KS","pop":"  43935","capital":"0"}},{"type":"Feature","geometry":{"type":"Point","coordinates":[-71.77,42.52]},"properties":{"name":"Leominster MA","state":"MA","pop":"  42479","capital":"0"}},{"type":"Feature","geometry":{"type":"Point","coordinates":[-73.51,40.72]},"properties":{"name":"Levittown NY","state":"NY","pop":"  52390","capital":"0"}},{"type":"Feature","geometry":{"type":"Point","coordinates":[-74.85,40.15]},"properties":{"name":"Levittown PA","state":"PA","pop":"  52889","capital":"0"}},{"type":"Feature","geometry":{"type":"Point","coordinates":[-96.98,33.04]},"properties":{"name":"Lewisville TX","state":"TX","pop":"  97496","capital":"0"}},{"type":"Feature","geometry":{"type":"Point","coordinates":[-84.46,38.04]},"properties":{"name":"Lexington KY","state":"KY","pop":" 274245","capital":"0"}},{"type":"Feature","geometry":{"type":"Point","coordinates":[-84.11,40.74]},"properties":{"name":"Lima OH","state":"OH","pop":"  39543","capital":"0"}},{"type":"Feature","geometry":{"type":"Point","coordinates":[-121.3,38.89]},"properties":{"name":"Lincoln CA","state":"CA","pop":"  40805","capital":"0"}},{"type":"Feature","geometry":{"type":"Point","coordinates":[-96.69,40.82]},"properties":{"name":"Lincoln NE","state":"NE","pop":" 245301","capital":"2"}},{"type":"Feature","geometry":{"type":"Point","coordinates":[-74.24,40.63]},"properties":{"name":"Linden NJ","state":"NJ","pop":"  39964","capital":"0"}},{"type":"Feature","geometry":{"type":"Point","coordinates":[-92.35,34.72]},"properties":{"name":"Little Rock AR","state":"AR","pop":" 184323","capital":"2"}},{"type":"Feature","geometry":{"type":"Point","coordinates":[-105.01,39.59]},"properties":{"name":"Littleton CO","state":"CO","pop":"  41063","capital":"0"}},{"type":"Feature","geometry":{"type":"Point","coordinates":[-121.76,37.69]},"properties":{"name":"Livermore CA","state":"CA","pop":"  81787","capital":"0"}},{"type":"Feature","geometry":{"type":"Point","coordinates":[-83.37,42.4]},"properties":{"name":"Livonia MI","state":"MI","pop":"  97722","capital":"0"}},{"type":"Feature","geometry":{"type":"Point","coordinates":[-121.29,38.12]},"properties":{"name":"Lodi CA","state":"CA","pop":"  64068","capital":"0"}},{"type":"Feature","geometry":{"type":"Point","coordinates":[-111.84,41.74]},"properties":{"name":"Logan UT","state":"UT","pop":"  45262","capital":"0"}},{"type":"Feature","geometry":{"type":"Point","coordinates":[-88.01,41.87]},"properties":{"name":"Lombard IL","state":"IL","pop":"  42917","capital":"0"}},{"type":"Feature","geometry":{"type":"Point","coordinates":[-120.47,34.66]},"properties":{"name":"Lompoc CA","state":"CA","pop":"  40924","capital":"0"}},{"type":"Feature","geometry":{"type":"Point","coordinates":[-118.16,33.79]},"properties":{"name":"Long Beach CA","state":"CA","pop":" 486571","capital":"0"}},{"type":"Feature","geometry":{"type":"Point","coordinates":[-105.11,40.17]},"properties":{"name":"Longmont CO","state":"CO","pop":"  85988","capital":"0"}},{"type":"Feature","geometry":{"type":"Point","coordinates":[-94.76,32.52]},"properties":{"name":"Longview TX","state":"TX","pop":"  76372","capital":"0"}},{"type":"Feature","geometry":{"type":"Point","coordinates":[-82.18,41.44]},"properties":{"name":"Lorain OH","state":"OH","pop":"  67692","capital":"0"}},{"type":"Feature","geometry":{"type":"Point","coordinates":[-118.41,34.11]},"properties":{"name":"Los Angeles CA","state":"CA","pop":"3911500","capital":"0"}},{"type":"Feature","geometry":{"type":"Point","coordinates":[-85.74,38.22]},"properties":{"name":"Louisville KY","state":"KY","pop":" 241072","capital":"0"}},{"type":"Feature","geometry":{"type":"Point","coordinates":[-105.07,40.42]},"properties":{"name":"Loveland CO","state":"CO","pop":"  61578","capital":"0"}},{"type":"Feature","geometry":{"type":"Point","coordinates":[-71.32,42.64]},"properties":{"name":"Lowell MA","state":"MA","pop":" 103085","capital":"0"}},{"type":"Feature","geometry":{"type":"Point","coordinates":[-75.28,40.03]},"properties":{"name":"Lower Merion PA","state":"PA","pop":"  60579","capital":"0"}},{"type":"Feature","geometry":{"type":"Point","coordinates":[-101.88,33.58]},"properties":{"name":"Lubbock TX","state":"TX","pop":" 213587","capital":"0"}},{"type":"Feature","geometry":{"type":"Point","coordinates":[-79.19,37.4]},"properties":{"name":"Lynchburg VA","state":"VA","pop":"  65485","capital":"0"}},{"type":"Feature","geometry":{"type":"Point","coordinates":[-70.96,42.47]},"properties":{"name":"Lynn MA","state":"MA","pop":"  89786","capital":"0"}},{"type":"Feature","geometry":{"type":"Point","coordinates":[-118.2,33.92]},"properties":{"name":"Lynwood CA","state":"CA","pop":"  72890","capital":"0"}},{"type":"Feature","geometry":{"type":"Point","coordinates":[-98.24,26.22]},"properties":{"name":"MacAllen TX","state":"TX","pop":" 125985","capital":"0"}},{"type":"Feature","geometry":{"type":"Point","coordinates":[-96.65,33.2]},"properties":{"name":"MacKinney TX","state":"TX","pop":" 108976","capital":"0"}},{"type":"Feature","geometry":{"type":"Point","coordinates":[-77.18,38.94]},"properties":{"name":"MacLean VA","state":"VA","pop":"  39731","capital":"0"}},{"type":"Feature","geometry":{"type":"Point","coordinates":[-83.66,32.84]},"properties":{"name":"Macon GA","state":"GA","pop":"  93755","capital":"0"}},{"type":"Feature","geometry":{"type":"Point","coordinates":[-120.08,36.97]},"properties":{"name":"Madera CA","state":"CA","pop":"  53222","capital":"0"}},{"type":"Feature","geometry":{"type":"Point","coordinates":[-86.75,34.7]},"properties":{"name":"Madison AL","state":"AL","pop":"  39516","capital":"0"}},{"type":"Feature","geometry":{"type":"Point","coordinates":[-89.39,43.08]},"properties":{"name":"Madison WI","state":"WI","pop":" 227642","capital":"2"}},{"type":"Feature","geometry":{"type":"Point","coordinates":[-71.06,42.43]},"properties":{"name":"Malden MA","state":"MA","pop":"  55066","capital":"0"}},{"type":"Feature","geometry":{"type":"Point","coordinates":[-71.44,42.98]},"properties":{"name":"Manchester NH","state":"NH","pop":" 110384","capital":"0"}},{"type":"Feature","geometry":{"type":"Point","coordinates":[-96.59,39.19]},"properties":{"name":"Manhattan KS","state":"KS","pop":"  45671","capital":"0"}},{"type":"Feature","geometry":{"type":"Point","coordinates":[-82.53,40.76]},"properties":{"name":"Mansfield OH","state":"OH","pop":"  50010","capital":"0"}},{"type":"Feature","geometry":{"type":"Point","coordinates":[-121.22,37.8]},"properties":{"name":"Manteca CA","state":"CA","pop":"  69588","capital":"0"}},{"type":"Feature","geometry":{"type":"Point","coordinates":[-93.46,45.11]},"properties":{"name":"Maple Grove MN","state":"MN","pop":"  62021","capital":"0"}},{"type":"Feature","geometry":{"type":"Point","coordinates":[-80.21,26.25]},"properties":{"name":"Margate FL","state":"FL","pop":"  55844","capital":"0"}},{"type":"Feature","geometry":{"type":"Point","coordinates":[-84.54,33.95]},"properties":{"name":"Marietta GA","state":"GA","pop":"  61946","capital":"0"}},{"type":"Feature","geometry":{"type":"Point","coordinates":[-70.71,42.09]},"properties":{"name":"Marshfield MA","state":"MA","pop":"  60784","capital":"0"}},{"type":"Feature","geometry":{"type":"Point","coordinates":[-71.11,42.42]},"properties":{"name":"Medford MA","state":"MA","pop":"  53579","capital":"0"}},{"type":"Feature","geometry":{"type":"Point","coordinates":[-122.85,42.34]},"properties":{"name":"Medford OR","state":"OR","pop":"  70717","capital":"0"}},{"type":"Feature","geometry":{"type":"Point","coordinates":[-80.64,28.11]},"properties":{"name":"Melbourne FL","state":"FL","pop":"  77320","capital":"0"}},{"type":"Feature","geometry":{"type":"Point","coordinates":[-90.01,35.11]},"properties":{"name":"Memphis TN","state":"TN","pop":" 639736","capital":"0"}},{"type":"Feature","geometry":{"type":"Point","coordinates":[-81.33,41.69]},"properties":{"name":"Mentor OH","state":"OH","pop":"  49597","capital":"0"}},{"type":"Feature","geometry":{"type":"Point","coordinates":[-120.48,37.3]},"properties":{"name":"Merced CA","state":"CA","pop":"  74415","capital":"0"}},{"type":"Feature","geometry":{"type":"Point","coordinates":[-72.8,41.54]},"properties":{"name":"Meriden CT","state":"CT","pop":"  59558","capital":"0"}},{"type":"Feature","geometry":{"type":"Point","coordinates":[-116.4,43.61]},"properties":{"name":"Meridian ID","state":"ID","pop":"  48376","capital":"0"}},{"type":"Feature","geometry":{"type":"Point","coordinates":[-111.74,33.42]},"properties":{"name":"Mesa AZ","state":"AZ","pop":" 461167","capital":"0"}},{"type":"Feature","geometry":{"type":"Point","coordinates":[-96.6,32.77]},"properties":{"name":"Mesquite TX","state":"TX","pop":" 132746","capital":"0"}},{"type":"Feature","geometry":{"type":"Point","coordinates":[-90.18,30]},"properties":{"name":"Metairie LA","state":"LA","pop":" 141606","capital":"0"}},{"type":"Feature","geometry":{"type":"Point","coordinates":[-71.19,42.73]},"properties":{"name":"Methuen MA","state":"MA","pop":"  45666","capital":"0"}},{"type":"Feature","geometry":{"type":"Point","coordinates":[-80.14,25.81]},"properties":{"name":"Miami Beach FL","state":"FL","pop":"  89531","capital":"0"}},{"type":"Feature","geometry":{"type":"Point","coordinates":[-80.21,25.78]},"properties":{"name":"Miami FL","state":"FL","pop":" 386740","capital":"0"}},{"type":"Feature","geometry":{"type":"Point","coordinates":[-72.65,41.55]},"properties":{"name":"Middletown CT","state":"CT","pop":"  51189","capital":"0"}},{"type":"Feature","geometry":{"type":"Point","coordinates":[-84.37,39.51]},"properties":{"name":"Middletown OH","state":"OH","pop":"  53027","capital":"0"}},{"type":"Feature","geometry":{"type":"Point","coordinates":[-84.23,43.62]},"properties":{"name":"Midland MI","state":"MI","pop":"  42516","capital":"0"}},{"type":"Feature","geometry":{"type":"Point","coordinates":[-102.1,32.03]},"properties":{"name":"Midland TX","state":"TX","pop":"  98261","capital":"0"}},{"type":"Feature","geometry":{"type":"Point","coordinates":[-97.37,35.46]},"properties":{"name":"Midwest City OK","state":"OK","pop":"  55090","capital":"0"}},{"type":"Feature","geometry":{"type":"Point","coordinates":[-73.06,41.23]},"properties":{"name":"Milford CT","state":"CT","pop":"  51360","capital":"0"}},{"type":"Feature","geometry":{"type":"Point","coordinates":[-121.89,37.43]},"properties":{"name":"Milpitas CA","state":"CA","pop":"  62671","capital":"0"}},{"type":"Feature","geometry":{"type":"Point","coordinates":[-87.97,43.06]},"properties":{"name":"Milwaukee WI","state":"WI","pop":" 575250","capital":"0"}},{"type":"Feature","geometry":{"type":"Point","coordinates":[-93.27,44.96]},"properties":{"name":"Minneapolis MN","state":"MN","pop":" 364726","capital":"0"}},{"type":"Feature","geometry":{"type":"Point","coordinates":[-93.46,44.93]},"properties":{"name":"Minnetonka MN","state":"MN","pop":"  49918","capital":"0"}},{"type":"Feature","geometry":{"type":"Point","coordinates":[-80.33,25.98]},"properties":{"name":"Miramar FL","state":"FL","pop":" 123116","capital":"0"}},{"type":"Feature","geometry":{"type":"Point","coordinates":[-86.17,41.67]},"properties":{"name":"Mishawaka IN","state":"IN","pop":"  49534","capital":"0"}},{"type":"Feature","geometry":{"type":"Point","coordinates":[-98.32,26.21]},"properties":{"name":"Mission TX","state":"TX","pop":"  65215","capital":"0"}},{"type":"Feature","geometry":{"type":"Point","coordinates":[-117.65,33.61]},"properties":{"name":"Mission Viejo CA","state":"CA","pop":"  97001","capital":"0"}},{"type":"Feature","geometry":{"type":"Point","coordinates":[-114.01,46.87]},"properties":{"name":"Missoula MT","state":"MT","pop":"  64391","capital":"0"}},{"type":"Feature","geometry":{"type":"Point","coordinates":[-95.54,29.57]},"properties":{"name":"Missouri City TX","state":"TX","pop":"  73529","capital":"0"}},{"type":"Feature","geometry":{"type":"Point","coordinates":[-88.09,30.68]},"properties":{"name":"Mobile AL","state":"AL","pop":" 188467","capital":"0"}},{"type":"Feature","geometry":{"type":"Point","coordinates":[-120.99,37.66]},"properties":{"name":"Modesto CA","state":"CA","pop":" 221674","capital":"0"}},{"type":"Feature","geometry":{"type":"Point","coordinates":[-90.49,41.49]},"properties":{"name":"Moline IL","state":"IL","pop":"  42427","capital":"0"}},{"type":"Feature","geometry":{"type":"Point","coordinates":[-92.08,32.51]},"properties":{"name":"Monroe LA","state":"LA","pop":"  51292","capital":"0"}},{"type":"Feature","geometry":{"type":"Point","coordinates":[-74.21,40.82]},"properties":{"name":"Montclair NJ","state":"NJ","pop":"  39801","capital":"0"}},{"type":"Feature","geometry":{"type":"Point","coordinates":[-118.11,34.02]},"properties":{"name":"Montebello CA","state":"CA","pop":"  64727","capital":"0"}},{"type":"Feature","geometry":{"type":"Point","coordinates":[-118.13,34.05]},"properties":{"name":"Monterey Park CA","state":"CA","pop":"  63766","capital":"0"}},{"type":"Feature","geometry":{"type":"Point","coordinates":[-86.28,32.35]},"properties":{"name":"Montgomery AL","state":"AL","pop":" 197653","capital":"2"}},{"type":"Feature","geometry":{"type":"Point","coordinates":[-77.19,39.18]},"properties":{"name":"Montgomery Village MD","state":"MD","pop":"  42453","capital":"0"}},{"type":"Feature","geometry":{"type":"Point","coordinates":[-72.57,44.26]},"properties":{"name":"Montpelier VT","state":"VT","pop":"   8003","capital":"2"}},{"type":"Feature","geometry":{"type":"Point","coordinates":[-97.47,35.33]},"properties":{"name":"Moore OK","state":"OK","pop":"  48749","capital":"0"}},{"type":"Feature","geometry":{"type":"Point","coordinates":[-117.21,33.93]},"properties":{"name":"Moreno Valley CA","state":"CA","pop":" 174068","capital":"0"}},{"type":"Feature","geometry":{"type":"Point","coordinates":[-79.86,32.82]},"properties":{"name":"Mount Pleasant SC","state":"SC","pop":"  61690","capital":"0"}},{"type":"Feature","geometry":{"type":"Point","coordinates":[-87.94,42.07]},"properties":{"name":"Mount Prospect IL","state":"IL","pop":"  55100","capital":"0"}},{"type":"Feature","geometry":{"type":"Point","coordinates":[-73.83,40.91]},"properties":{"name":"Mount Vernon NY","state":"NY","pop":"  68048","capital":"0"}},{"type":"Feature","geometry":{"type":"Point","coordinates":[-122.08,37.4]},"properties":{"name":"Mountain View CA","state":"CA","pop":"  67788","capital":"0"}},{"type":"Feature","geometry":{"type":"Point","coordinates":[-85.39,40.2]},"properties":{"name":"Muncie IN","state":"IN","pop":"  64771","capital":"0"}},{"type":"Feature","geometry":{"type":"Point","coordinates":[-86.39,35.85]},"properties":{"name":"Murfreesboro TN","state":"TN","pop":"  88161","capital":"0"}},{"type":"Feature","geometry":{"type":"Point","coordinates":[-111.89,40.65]},"properties":{"name":"Murray UT","state":"UT","pop":"  56848","capital":"0"}},{"type":"Feature","geometry":{"type":"Point","coordinates":[-117.21,33.56]},"properties":{"name":"Murrieta CA","state":"CA","pop":"  97999","capital":"0"}},{"type":"Feature","geometry":{"type":"Point","coordinates":[-86.26,43.23]},"properties":{"name":"Muskegon MI","state":"MI","pop":"  40058","capital":"0"}},{"type":"Feature","geometry":{"type":"Point","coordinates":[-116.56,43.58]},"properties":{"name":"Nampa ID","state":"ID","pop":"  77893","capital":"0"}},{"type":"Feature","geometry":{"type":"Point","coordinates":[-122.3,38.3]},"properties":{"name":"Napa CA","state":"CA","pop":"  77884","capital":"0"}},{"type":"Feature","geometry":{"type":"Point","coordinates":[-88.15,41.76]},"properties":{"name":"Naperville IL","state":"IL","pop":" 147178","capital":"0"}},{"type":"Feature","geometry":{"type":"Point","coordinates":[-71.49,42.75]},"properties":{"name":"Nashua NH","state":"NH","pop":"  87113","capital":"0"}},{"type":"Feature","geometry":{"type":"Point","coordinates":[-86.78,36.17]},"properties":{"name":"Nashville TN","state":"TN","pop":" 523547","capital":"2"}},{"type":"Feature","geometry":{"type":"Point","coordinates":[-117.1,32.67]},"properties":{"name":"National City CA","state":"CA","pop":"  64065","capital":"0"}},{"type":"Feature","geometry":{"type":"Point","coordinates":[-70.94,41.66]},"properties":{"name":"New Bedford MA","state":"MA","pop":"  94039","capital":"0"}},{"type":"Feature","geometry":{"type":"Point","coordinates":[-98.12,29.7]},"properties":{"name":"New Braunfels TX","state":"TX","pop":"  47533","capital":"0"}},{"type":"Feature","geometry":{"type":"Point","coordinates":[-72.79,41.68]},"properties":{"name":"New Britain CT","state":"CT","pop":"  71362","capital":"0"}},{"type":"Feature","geometry":{"type":"Point","coordinates":[-74.45,40.49]},"properties":{"name":"New Brunswick NJ","state":"NJ","pop":"  51044","capital":"0"}},{"type":"Feature","geometry":{"type":"Point","coordinates":[-72.92,41.31]},"properties":{"name":"New Haven CT","state":"CT","pop":" 125030","capital":"0"}},{"type":"Feature","geometry":{"type":"Point","coordinates":[-73.41,41.58]},"properties":{"name":"New Milford CT","state":"CT","pop":"  58524","capital":"0"}},{"type":"Feature","geometry":{"type":"Point","coordinates":[-89.93,30.07]},"properties":{"name":"New Orleans LA","state":"LA","pop":" 454207","capital":"0"}},{"type":"Feature","geometry":{"type":"Point","coordinates":[-73.78,40.92]},"properties":{"name":"New Rochelle NY","state":"NY","pop":"  72865","capital":"0"}},{"type":"Feature","geometry":{"type":"Point","coordinates":[-73.94,40.67]},"properties":{"name":"New York NY","state":"NY","pop":"8124427","capital":"0"}},{"type":"Feature","geometry":{"type":"Point","coordinates":[-122.03,37.52]},"properties":{"name":"Newark CA","state":"CA","pop":"  43018","capital":"0"}},{"type":"Feature","geometry":{"type":"Point","coordinates":[-74.17,40.72]},"properties":{"name":"Newark NJ","state":"NJ","pop":" 281378","capital":"0"}},{"type":"Feature","geometry":{"type":"Point","coordinates":[-82.42,40.07]},"properties":{"name":"Newark OH","state":"OH","pop":"  46870","capital":"0"}},{"type":"Feature","geometry":{"type":"Point","coordinates":[-117.87,33.61]},"properties":{"name":"Newport Beach CA","state":"CA","pop":"  79305","capital":"0"}},{"type":"Feature","geometry":{"type":"Point","coordinates":[-76.51,37.08]},"properties":{"name":"Newport News VA","state":"VA","pop":" 183941","capital":"0"}},{"type":"Feature","geometry":{"type":"Point","coordinates":[-71.21,42.33]},"properties":{"name":"Newton MA","state":"MA","pop":"  84969","capital":"0"}},{"type":"Feature","geometry":{"type":"Point","coordinates":[-79.02,43.09]},"properties":{"name":"Niagara Falls NY","state":"NY","pop":"  52509","capital":"0"}},{"type":"Feature","geometry":{"type":"Point","coordinates":[-76.24,36.92]},"properties":{"name":"Norfolk VA","state":"VA","pop":" 248182","capital":"0"}},{"type":"Feature","geometry":{"type":"Point","coordinates":[-89,40.52]},"properties":{"name":"Normal IL","state":"IL","pop":"  52497","capital":"0"}},{"type":"Feature","geometry":{"type":"Point","coordinates":[-97.34,35.23]},"properties":{"name":"Norman OK","state":"OK","pop":" 102925","capital":"0"}},{"type":"Feature","geometry":{"type":"Point","coordinates":[-84.33,33.86]},"properties":{"name":"North Atlanta GA","state":"GA","pop":"  45739","capital":"0"}},{"type":"Feature","geometry":{"type":"Point","coordinates":[-74.03,40.79]},"properties":{"name":"North Bergen NJ","state":"NJ","pop":"  64575","capital":"0"}},{"type":"Feature","geometry":{"type":"Point","coordinates":[-77.12,39.04]},"properties":{"name":"North Bethesda MD","state":"MD","pop":"  45600","capital":"0"}},{"type":"Feature","geometry":{"type":"Point","coordinates":[-74.48,40.45]},"properties":{"name":"North Brunswick Township NJ","state":"NJ","pop":"  39567","capital":"0"}},{"type":"Feature","geometry":{"type":"Point","coordinates":[-80.04,32.91]},"properties":{"name":"North Charleston SC","state":"SC","pop":"  83247","capital":"0"}},{"type":"Feature","geometry":{"type":"Point","coordinates":[-81.89,26.71]},"properties":{"name":"North Fort Myers FL","state":"FL","pop":"  47790","capital":"0"}},{"type":"Feature","geometry":{"type":"Point","coordinates":[-121.38,38.67]},"properties":{"name":"North Highlands CA","state":"CA","pop":"  46156","capital":"0"}},{"type":"Feature","geometry":{"type":"Point","coordinates":[-115.14,36.27]},"properties":{"name":"North Las Vegas NV","state":"NV","pop":" 177751","capital":"0"}},{"type":"Feature","geometry":{"type":"Point","coordinates":[-92.26,34.79]},"properties":{"name":"North Little Rock AR","state":"AR","pop":"  58771","capital":"0"}},{"type":"Feature","geometry":{"type":"Point","coordinates":[-80.17,25.93]},"properties":{"name":"North Miami Beach FL","state":"FL","pop":"  39551","capital":"0"}},{"type":"Feature","geometry":{"type":"Point","coordinates":[-80.17,25.9]},"properties":{"name":"North Miami FL","state":"FL","pop":"  58238","capital":"0"}},{"type":"Feature","geometry":{"type":"Point","coordinates":[-82.19,27.05]},"properties":{"name":"North Port FL","state":"FL","pop":"  41919","capital":"0"}},{"type":"Feature","geometry":{"type":"Point","coordinates":[-97.22,32.86]},"properties":{"name":"North Richland Hills TX","state":"TX","pop":"  64317","capital":"0"}},{"type":"Feature","geometry":{"type":"Point","coordinates":[-118.08,33.91]},"properties":{"name":"Norwalk CA","state":"CA","pop":" 110002","capital":"0"}},{"type":"Feature","geometry":{"type":"Point","coordinates":[-73.42,41.09]},"properties":{"name":"Norwalk CT","state":"CT","pop":"  84801","capital":"0"}},{"type":"Feature","geometry":{"type":"Point","coordinates":[-122.56,38.09]},"properties":{"name":"Novato CA","state":"CA","pop":"  49005","capital":"0"}},{"type":"Feature","geometry":{"type":"Point","coordinates":[-83.49,42.48]},"properties":{"name":"Novi MI","state":"MI","pop":"  55079","capital":"0"}},{"type":"Feature","geometry":{"type":"Point","coordinates":[-90.71,38.78]},"properties":{"name":"O'Fallon MO","state":"MO","pop":"  79091","capital":"0"}},{"type":"Feature","geometry":{"type":"Point","coordinates":[-87.75,41.72]},"properties":{"name":"Oak Lawn IL","state":"IL","pop":"  54638","capital":"0"}},{"type":"Feature","geometry":{"type":"Point","coordinates":[-87.79,41.89]},"properties":{"name":"Oak Park IL","state":"IL","pop":"  48922","capital":"0"}},{"type":"Feature","geometry":{"type":"Point","coordinates":[-122.22,37.77]},"properties":{"name":"Oakland CA","state":"CA","pop":" 393632","capital":"0"}},{"type":"Feature","geometry":{"type":"Point","coordinates":[-82.13,29.19]},"properties":{"name":"Ocala FL","state":"FL","pop":"  50241","capital":"0"}},{"type":"Feature","geometry":{"type":"Point","coordinates":[-117.31,33.23]},"properties":{"name":"Oceanside CA","state":"CA","pop":" 172251","capital":"0"}},{"type":"Feature","geometry":{"type":"Point","coordinates":[-102.35,31.87]},"properties":{"name":"Odessa TX","state":"TX","pop":"  91246","capital":"0"}},{"type":"Feature","geometry":{"type":"Point","coordinates":[-111.97,41.23]},"properties":{"name":"Ogden UT","state":"UT","pop":"  78572","capital":"0"}},{"type":"Feature","geometry":{"type":"Point","coordinates":[-97.51,35.47]},"properties":{"name":"Oklahoma City OK","state":"OK","pop":" 538141","capital":"2"}},{"type":"Feature","geometry":{"type":"Point","coordinates":[-94.81,38.89]},"properties":{"name":"Olathe KS","state":"KS","pop":" 118165","capital":"0"}},{"type":"Feature","geometry":{"type":"Point","coordinates":[-122.89,47.04]},"properties":{"name":"Olympia WA","state":"WA","pop":"  45403","capital":"2"}},{"type":"Feature","geometry":{"type":"Point","coordinates":[-96.01,41.26]},"properties":{"name":"Omaha NE","state":"NE","pop":" 417809","capital":"0"}},{"type":"Feature","geometry":{"type":"Point","coordinates":[-117.61,34.05]},"properties":{"name":"Ontario CA","state":"CA","pop":" 175805","capital":"0"}},{"type":"Feature","geometry":{"type":"Point","coordinates":[-117.82,33.81]},"properties":{"name":"Orange CA","state":"CA","pop":" 134868","capital":"0"}},{"type":"Feature","geometry":{"type":"Point","coordinates":[-111.7,40.3]},"properties":{"name":"Orem UT","state":"UT","pop":"  94758","capital":"0"}},{"type":"Feature","geometry":{"type":"Point","coordinates":[-87.85,41.61]},"properties":{"name":"Orland Park IL","state":"IL","pop":"  56731","capital":"0"}},{"type":"Feature","geometry":{"type":"Point","coordinates":[-81.37,28.5]},"properties":{"name":"Orlando FL","state":"FL","pop":" 211226","capital":"0"}},{"type":"Feature","geometry":{"type":"Point","coordinates":[-88.55,44.02]},"properties":{"name":"Oshkosh WI","state":"WI","pop":"  62967","capital":"0"}},{"type":"Feature","geometry":{"type":"Point","coordinates":[-94.68,38.91]},"properties":{"name":"Overland Park KS","state":"KS","pop":" 169520","capital":"0"}},{"type":"Feature","geometry":{"type":"Point","coordinates":[-87.12,37.76]},"properties":{"name":"Owensboro KY","state":"KY","pop":"  54513","capital":"0"}},{"type":"Feature","geometry":{"type":"Point","coordinates":[-119.21,34.2]},"properties":{"name":"Oxnard CA","state":"CA","pop":" 190658","capital":"0"}},{"type":"Feature","geometry":{"type":"Point","coordinates":[-115.99,36.2]},"properties":{"name":"Pahrump NV","state":"NV","pop":"  44614","capital":"0"}},{"type":"Feature","geometry":{"type":"Point","coordinates":[-88.04,42.11]},"properties":{"name":"Palatine IL","state":"IL","pop":"  68308","capital":"0"}},{"type":"Feature","geometry":{"type":"Point","coordinates":[-80.66,27.99]},"properties":{"name":"Palm Bay FL","state":"FL","pop":"  91080","capital":"0"}},{"type":"Feature","geometry":{"type":"Point","coordinates":[-80.12,26.84]},"properties":{"name":"Palm Beach Gardens FL","state":"FL","pop":"  50768","capital":"0"}},{"type":"Feature","geometry":{"type":"Point","coordinates":[-81.21,29.57]},"properties":{"name":"Palm Coast FL","state":"FL","pop":"  43487","capital":"0"}},{"type":"Feature","geometry":{"type":"Point","coordinates":[-116.38,33.73]},"properties":{"name":"Palm Desert CA","state":"CA","pop":"  50126","capital":"0"}},{"type":"Feature","geometry":{"type":"Point","coordinates":[-82.76,28.09]},"properties":{"name":"Palm Harbor FL","state":"FL","pop":"  65500","capital":"0"}},{"type":"Feature","geometry":{"type":"Point","coordinates":[-116.53,33.78]},"properties":{"name":"Palm Springs CA","state":"CA","pop":"  47434","capital":"0"}},{"type":"Feature","geometry":{"type":"Point","coordinates":[-118.09,34.61]},"properties":{"name":"Palmdale CA","state":"CA","pop":" 139337","capital":"0"}},{"type":"Feature","geometry":{"type":"Point","coordinates":[-122.14,37.4]},"properties":{"name":"Palo Alto CA","state":"CA","pop":"  56084","capital":"0"}},{"type":"Feature","geometry":{"type":"Point","coordinates":[-115.13,36.08]},"properties":{"name":"Paradise NV","state":"NV","pop":" 221051","capital":"0"}},{"type":"Feature","geometry":{"type":"Point","coordinates":[-118.16,33.9]},"properties":{"name":"Paramount CA","state":"CA","pop":"  57672","capital":"0"}},{"type":"Feature","geometry":{"type":"Point","coordinates":[-104.76,39.51]},"properties":{"name":"Parker CO","state":"CO","pop":"  45478","capital":"0"}},{"type":"Feature","geometry":{"type":"Point","coordinates":[-121.45,38.51]},"properties":{"name":"Parkway-South Sacramento CA","state":"CA","pop":"  39984","capital":"0"}},{"type":"Feature","geometry":{"type":"Point","coordinates":[-81.73,41.38]},"properties":{"name":"Parma OH","state":"OH","pop":"  81917","capital":"0"}},{"type":"Feature","geometry":{"type":"Point","coordinates":[-74.42,40.86]},"properties":{"name":"Parsippany-Troy Hills Township NJ","state":"NJ","pop":"  52051","capital":"0"}},{"type":"Feature","geometry":{"type":"Point","coordinates":[-118.14,34.16]},"properties":{"name":"Pasadena CA","state":"CA","pop":" 146676","capital":"0"}},{"type":"Feature","geometry":{"type":"Point","coordinates":[-95.15,29.66]},"properties":{"name":"Pasadena TX","state":"TX","pop":" 145351","capital":"0"}},{"type":"Feature","geometry":{"type":"Point","coordinates":[-119.13,46.25]},"properties":{"name":"Pasco WA","state":"WA","pop":"  45774","capital":"0"}},{"type":"Feature","geometry":{"type":"Point","coordinates":[-74.13,40.86]},"properties":{"name":"Passaic NJ","state":"NJ","pop":"  69035","capital":"0"}},{"type":"Feature","geometry":{"type":"Point","coordinates":[-74.16,40.91]},"properties":{"name":"Paterson NJ","state":"NJ","pop":" 151523","capital":"0"}},{"type":"Feature","geometry":{"type":"Point","coordinates":[-71.37,41.87]},"properties":{"name":"Pawtucket RI","state":"RI","pop":"  75297","capital":"0"}},{"type":"Feature","geometry":{"type":"Point","coordinates":[-70.97,42.53]},"properties":{"name":"Peabody MA","state":"MA","pop":"  50698","capital":"0"}},{"type":"Feature","geometry":{"type":"Point","coordinates":[-95.28,29.56]},"properties":{"name":"Pearland TX","state":"TX","pop":"  59287","capital":"0"}},{"type":"Feature","geometry":{"type":"Point","coordinates":[-80.34,26.01]},"properties":{"name":"Pembroke Pines FL","state":"FL","pop":" 160157","capital":"0"}},{"type":"Feature","geometry":{"type":"Point","coordinates":[-79.83,40.48]},"properties":{"name":"Penn Hills PA","state":"PA","pop":"  44124","capital":"0"}},{"type":"Feature","geometry":{"type":"Point","coordinates":[-87.19,30.44]},"properties":{"name":"Pensacola FL","state":"FL","pop":"  53652","capital":"0"}},{"type":"Feature","geometry":{"type":"Point","coordinates":[-112.24,33.69]},"properties":{"name":"Peoria AZ","state":"AZ","pop":" 146634","capital":"0"}},{"type":"Feature","geometry":{"type":"Point","coordinates":[-89.61,40.74]},"properties":{"name":"Peoria IL","state":"IL","pop":" 112894","capital":"0"}},{"type":"Feature","geometry":{"type":"Point","coordinates":[-117.22,33.79]},"properties":{"name":"Perris CA","state":"CA","pop":"  48555","capital":"0"}},{"type":"Feature","geometry":{"type":"Point","coordinates":[-74.27,40.52]},"properties":{"name":"Perth Amboy NJ","state":"NJ","pop":"  49448","capital":"0"}},{"type":"Feature","geometry":{"type":"Point","coordinates":[-122.63,38.24]},"properties":{"name":"Petaluma CA","state":"CA","pop":"  55536","capital":"0"}},{"type":"Feature","geometry":{"type":"Point","coordinates":[-98.19,26.18]},"properties":{"name":"Pharr TX","state":"TX","pop":"  63806","capital":"0"}},{"type":"Feature","geometry":{"type":"Point","coordinates":[-75.13,40.01]},"properties":{"name":"Philadelphia PA","state":"PA","pop":"1439814","capital":"0"}},{"type":"Feature","geometry":{"type":"Point","coordinates":[-112.07,33.54]},"properties":{"name":"Phoenix AZ","state":"AZ","pop":"1450884","capital":"2"}},{"type":"Feature","geometry":{"type":"Point","coordinates":[-118.09,33.99]},"properties":{"name":"Pico Rivera CA","state":"CA","pop":"  66874","capital":"0"}},{"type":"Feature","geometry":{"type":"Point","coordinates":[-100.34,44.37]},"properties":{"name":"Pierre SD","state":"SD","pop":"  14052","capital":"2"}},{"type":"Feature","geometry":{"type":"Point","coordinates":[-92.02,34.21]},"properties":{"name":"Pine Bluff AR","state":"AR","pop":"  52802","capital":"0"}},{"type":"Feature","geometry":{"type":"Point","coordinates":[-81.46,28.58]},"properties":{"name":"Pine Hills FL","state":"FL","pop":"  46248","capital":"0"}},{"type":"Feature","geometry":{"type":"Point","coordinates":[-82.71,27.86]},"properties":{"name":"Pinellas Park FL","state":"FL","pop":"  46469","capital":"0"}},{"type":"Feature","geometry":{"type":"Point","coordinates":[-121.89,38.02]},"properties":{"name":"Pittsburg CA","state":"CA","pop":"  64106","capital":"0"}},{"type":"Feature","geometry":{"type":"Point","coordinates":[-79.98,40.44]},"properties":{"name":"Pittsburgh PA","state":"PA","pop":" 316272","capital":"0"}},{"type":"Feature","geometry":{"type":"Point","coordinates":[-73.26,42.45]},"properties":{"name":"Pittsfield MA","state":"MA","pop":"  43821","capital":"0"}},{"type":"Feature","geometry":{"type":"Point","coordinates":[-117.85,33.88]},"properties":{"name":"Placentia CA","state":"CA","pop":"  49679","capital":"0"}},{"type":"Feature","geometry":{"type":"Point","coordinates":[-74.42,40.62]},"properties":{"name":"Plainfield NJ","state":"NJ","pop":"  47769","capital":"0"}},{"type":"Feature","geometry":{"type":"Point","coordinates":[-96.75,33.05]},"properties":{"name":"Plano TX","state":"TX","pop":" 260415","capital":"0"}},{"type":"Feature","geometry":{"type":"Point","coordinates":[-80.26,26.13]},"properties":{"name":"Plantation FL","state":"FL","pop":"  86330","capital":"0"}},{"type":"Feature","geometry":{"type":"Point","coordinates":[-121.89,37.67]},"properties":{"name":"Pleasanton CA","state":"CA","pop":"  67119","capital":"0"}},{"type":"Feature","geometry":{"type":"Point","coordinates":[-70.67,41.96]},"properties":{"name":"Plymouth MA","state":"MA","pop":" 133313","capital":"0"}},{"type":"Feature","geometry":{"type":"Point","coordinates":[-93.46,45.02]},"properties":{"name":"Plymouth MN","state":"MN","pop":"  73505","capital":"0"}},{"type":"Feature","geometry":{"type":"Point","coordinates":[-112.47,42.88]},"properties":{"name":"Pocatello ID","state":"ID","pop":"  50496","capital":"0"}},{"type":"Feature","geometry":{"type":"Point","coordinates":[-117.76,34.06]},"properties":{"name":"Pomona CA","state":"CA","pop":" 157501","capital":"0"}},{"type":"Feature","geometry":{"type":"Point","coordinates":[-80.13,26.24]},"properties":{"name":"Pompano Beach FL","state":"FL","pop":"  90446","capital":"0"}},{"type":"Feature","geometry":{"type":"Point","coordinates":[-83.29,42.65]},"properties":{"name":"Pontiac MI","state":"MI","pop":"  67952","capital":"0"}},{"type":"Feature","geometry":{"type":"Point","coordinates":[-93.93,29.9]},"properties":{"name":"Port Arthur TX","state":"TX","pop":"  56728","capital":"0"}},{"type":"Feature","geometry":{"type":"Point","coordinates":[-82.11,26.99]},"properties":{"name":"Port Charlotte FL","state":"FL","pop":"  49840","capital":"0"}},{"type":"Feature","geometry":{"type":"Point","coordinates":[-81.01,29.11]},"properties":{"name":"Port Orange FL","state":"FL","pop":"  55891","capital":"0"}},{"type":"Feature","geometry":{"type":"Point","coordinates":[-80.35,27.28]},"properties":{"name":"Port Saint Lucie FL","state":"FL","pop":" 126377","capital":"0"}},{"type":"Feature","geometry":{"type":"Point","coordinates":[-85.59,42.2]},"properties":{"name":"Portage MI","state":"MI","pop":"  46666","capital":"0"}},{"type":"Feature","geometry":{"type":"Point","coordinates":[-119.03,36.06]},"properties":{"name":"Porterville CA","state":"CA","pop":"  45703","capital":"0"}},{"type":"Feature","geometry":{"type":"Point","coordinates":[-70.28,43.66]},"properties":{"name":"Portland ME","state":"ME","pop":"  62882","capital":"0"}},{"type":"Feature","geometry":{"type":"Point","coordinates":[-122.66,45.54]},"properties":{"name":"Portland OR","state":"OR","pop":" 542751","capital":"0"}},{"type":"Feature","geometry":{"type":"Point","coordinates":[-76.36,36.86]},"properties":{"name":"Portsmouth VA","state":"VA","pop":"  98664","capital":"0"}},{"type":"Feature","geometry":{"type":"Point","coordinates":[-77.2,39.03]},"properties":{"name":"Potomac MD","state":"MD","pop":"  45119","capital":"0"}},{"type":"Feature","geometry":{"type":"Point","coordinates":[-117.02,32.99]},"properties":{"name":"Poway CA","state":"CA","pop":"  49943","capital":"0"}},{"type":"Feature","geometry":{"type":"Point","coordinates":[-112.45,34.58]},"properties":{"name":"Prescott AZ","state":"AZ","pop":"  41432","capital":"0"}},{"type":"Feature","geometry":{"type":"Point","coordinates":[-71.42,41.82]},"properties":{"name":"Providence RI","state":"RI","pop":" 178295","capital":"2"}},{"type":"Feature","geometry":{"type":"Point","coordinates":[-111.64,40.25]},"properties":{"name":"Provo UT","state":"UT","pop":" 105832","capital":"0"}},{"type":"Feature","geometry":{"type":"Point","coordinates":[-104.62,38.27]},"properties":{"name":"Pueblo CO","state":"CO","pop":" 104659","capital":"0"}},{"type":"Feature","geometry":{"type":"Point","coordinates":[-91.39,39.93]},"properties":{"name":"Quincy IL","state":"IL","pop":"  39549","capital":"0"}},{"type":"Feature","geometry":{"type":"Point","coordinates":[-71.01,42.26]},"properties":{"name":"Quincy MA","state":"MA","pop":"  89347","capital":"0"}},{"type":"Feature","geometry":{"type":"Point","coordinates":[-87.81,42.73]},"properties":{"name":"Racine WI","state":"WI","pop":"  78703","capital":"0"}},{"type":"Feature","geometry":{"type":"Point","coordinates":[-78.66,35.82]},"properties":{"name":"Raleigh NC","state":"NC","pop":" 350822","capital":"2"}},{"type":"Feature","geometry":{"type":"Point","coordinates":[-121.3,38.6]},"properties":{"name":"Rancho Cordova CA","state":"CA","pop":"  59972","capital":"0"}},{"type":"Feature","geometry":{"type":"Point","coordinates":[-117.57,34.12]},"properties":{"name":"Rancho Cucamonga CA","state":"CA","pop":" 177721","capital":"0"}},{"type":"Feature","geometry":{"type":"Point","coordinates":[-118.36,33.76]},"properties":{"name":"Rancho Palos Verdes CA","state":"CA","pop":"  42966","capital":"0"}},{"type":"Feature","geometry":{"type":"Point","coordinates":[-117.6,33.64]},"properties":{"name":"Rancho Santa Margarita CA","state":"CA","pop":"  52447","capital":"0"}},{"type":"Feature","geometry":{"type":"Point","coordinates":[-103.23,44.08]},"properties":{"name":"Rapid City SD","state":"SD","pop":"  62302","capital":"0"}},{"type":"Feature","geometry":{"type":"Point","coordinates":[-75.93,40.34]},"properties":{"name":"Reading PA","state":"PA","pop":"  79476","capital":"0"}},{"type":"Feature","geometry":{"type":"Point","coordinates":[-84.16,33.74]},"properties":{"name":"Redan GA","state":"GA","pop":"  40141","capital":"0"}},{"type":"Feature","geometry":{"type":"Point","coordinates":[-122.36,40.57]},"properties":{"name":"Redding CA","state":"CA","pop":"  93865","capital":"0"}},{"type":"Feature","geometry":{"type":"Point","coordinates":[-83.29,42.39]},"properties":{"name":"Redford MI","state":"MI","pop":"  49542","capital":"0"}},{"type":"Feature","geometry":{"type":"Point","coordinates":[-117.17,34.06]},"properties":{"name":"Redlands CA","state":"CA","pop":"  71605","capital":"0"}},{"type":"Feature","geometry":{"type":"Point","coordinates":[-122.11,47.67]},"properties":{"name":"Redmond WA","state":"WA","pop":"  47662","capital":"0"}},{"type":"Feature","geometry":{"type":"Point","coordinates":[-118.38,33.86]},"properties":{"name":"Redondo Beach CA","state":"CA","pop":"  68669","capital":"0"}},{"type":"Feature","geometry":{"type":"Point","coordinates":[-122.21,37.52]},"properties":{"name":"Redwood City CA","state":"CA","pop":"  71340","capital":"0"}},{"type":"Feature","geometry":{"type":"Point","coordinates":[-119.82,39.54]},"properties":{"name":"Reno NV","state":"NV","pop":" 206626","capital":"0"}},{"type":"Feature","geometry":{"type":"Point","coordinates":[-122.2,47.48]},"properties":{"name":"Renton WA","state":"WA","pop":"  57369","capital":"0"}},{"type":"Feature","geometry":{"type":"Point","coordinates":[-77.35,38.95]},"properties":{"name":"Reston VA","state":"VA","pop":"  61977","capital":"0"}},{"type":"Feature","geometry":{"type":"Point","coordinates":[-70.99,42.42]},"properties":{"name":"Revere MA","state":"MA","pop":"  46259","capital":"0"}},{"type":"Feature","geometry":{"type":"Point","coordinates":[-117.39,34.11]},"properties":{"name":"Rialto CA","state":"CA","pop":" 103423","capital":"0"}},{"type":"Feature","geometry":{"type":"Point","coordinates":[-96.71,32.97]},"properties":{"name":"Richardson TX","state":"TX","pop":" 107481","capital":"0"}},{"type":"Feature","geometry":{"type":"Point","coordinates":[-119.29,46.29]},"properties":{"name":"Richland WA","state":"WA","pop":"  46156","capital":"0"}},{"type":"Feature","geometry":{"type":"Point","coordinates":[-122.36,37.95]},"properties":{"name":"Richmond CA","state":"CA","pop":" 103818","capital":"0"}},{"type":"Feature","geometry":{"type":"Point","coordinates":[-77.47,37.53]},"properties":{"name":"Richmond VA","state":"VA","pop":" 189498","capital":"2"}},{"type":"Feature","geometry":{"type":"Point","coordinates":[-106.66,35.27]},"properties":{"name":"Rio Rancho NM","state":"NM","pop":"  66833","capital":"0"}},{"type":"Feature","geometry":{"type":"Point","coordinates":[-117.4,33.94]},"properties":{"name":"Riverside CA","state":"CA","pop":" 306351","capital":"0"}},{"type":"Feature","geometry":{"type":"Point","coordinates":[-79.96,37.28]},"properties":{"name":"Roanoke VA","state":"VA","pop":"  90410","capital":"0"}},{"type":"Feature","geometry":{"type":"Point","coordinates":[-83.16,42.67]},"properties":{"name":"Rochester Hills MI","state":"MI","pop":"  68879","capital":"0"}},{"type":"Feature","geometry":{"type":"Point","coordinates":[-92.48,44.01]},"properties":{"name":"Rochester MN","state":"MN","pop":"  98227","capital":"0"}},{"type":"Feature","geometry":{"type":"Point","coordinates":[-77.62,43.17]},"properties":{"name":"Rochester NY","state":"NY","pop":" 209587","capital":"0"}},{"type":"Feature","geometry":{"type":"Point","coordinates":[-81.03,34.94]},"properties":{"name":"Rock Hill SC","state":"SC","pop":"  61899","capital":"0"}},{"type":"Feature","geometry":{"type":"Point","coordinates":[-89.06,42.27]},"properties":{"name":"Rockford IL","state":"IL","pop":" 153148","capital":"0"}},{"type":"Feature","geometry":{"type":"Point","coordinates":[-121.24,38.8]},"properties":{"name":"Rocklin CA","state":"CA","pop":"  59546","capital":"0"}},{"type":"Feature","geometry":{"type":"Point","coordinates":[-77.15,39.08]},"properties":{"name":"Rockville MD","state":"MD","pop":"  63516","capital":"0"}},{"type":"Feature","geometry":{"type":"Point","coordinates":[-77.81,35.96]},"properties":{"name":"Rocky Mount NC","state":"NC","pop":"  56008","capital":"0"}},{"type":"Feature","geometry":{"type":"Point","coordinates":[-94.13,36.33]},"properties":{"name":"Rogers AR","state":"AR","pop":"  46984","capital":"0"}},{"type":"Feature","geometry":{"type":"Point","coordinates":[-122.7,38.35]},"properties":{"name":"Rohnert Park CA","state":"CA","pop":"  41154","capital":"0"}},{"type":"Feature","geometry":{"type":"Point","coordinates":[-88.09,41.65]},"properties":{"name":"Romeoville IL","state":"IL","pop":"  46960","capital":"0"}},{"type":"Feature","geometry":{"type":"Point","coordinates":[-118.08,34.07]},"properties":{"name":"Rosemead CA","state":"CA","pop":"  56542","capital":"0"}},{"type":"Feature","geometry":{"type":"Point","coordinates":[-121.29,38.76]},"properties":{"name":"Roseville CA","state":"CA","pop":" 120444","capital":"0"}},{"type":"Feature","geometry":{"type":"Point","coordinates":[-82.94,42.51]},"properties":{"name":"Roseville MI","state":"MI","pop":"  47190","capital":"0"}},{"type":"Feature","geometry":{"type":"Point","coordinates":[-84.36,34.04]},"properties":{"name":"Roswell GA","state":"GA","pop":"  76825","capital":"0"}},{"type":"Feature","geometry":{"type":"Point","coordinates":[-104.53,33.37]},"properties":{"name":"Roswell NM","state":"NM","pop":"  43788","capital":"0"}},{"type":"Feature","geometry":{"type":"Point","coordinates":[-97.67,30.52]},"properties":{"name":"Round Rock TX","state":"TX","pop":"  95330","capital":"0"}},{"type":"Feature","geometry":{"type":"Point","coordinates":[-117.89,33.98]},"properties":{"name":"Rowland Heights CA","state":"CA","pop":"  53112","capital":"0"}},{"type":"Feature","geometry":{"type":"Point","coordinates":[-96.55,32.91]},"properties":{"name":"Rowlett TX","state":"TX","pop":"  57174","capital":"0"}},{"type":"Feature","geometry":{"type":"Point","coordinates":[-83.15,42.51]},"properties":{"name":"Royal Oak MI","state":"MI","pop":"  57043","capital":"0"}},{"type":"Feature","geometry":{"type":"Point","coordinates":[-121.47,38.57]},"properties":{"name":"Sacramento CA","state":"CA","pop":" 480392","capital":"2"}},{"type":"Feature","geometry":{"type":"Point","coordinates":[-83.95,43.42]},"properties":{"name":"Saginaw MI","state":"MI","pop":"  56685","capital":"0"}},{"type":"Feature","geometry":{"type":"Point","coordinates":[-90.52,38.79]},"properties":{"name":"Saint Charles MO","state":"MO","pop":"  62284","capital":"0"}},{"type":"Feature","geometry":{"type":"Point","coordinates":[-82.89,42.49]},"properties":{"name":"Saint Clair Shores MI","state":"MI","pop":"  60089","capital":"0"}},{"type":"Feature","geometry":{"type":"Point","coordinates":[-94.17,45.55]},"properties":{"name":"Saint Cloud MN","state":"MN","pop":"  59074","capital":"0"}},{"type":"Feature","geometry":{"type":"Point","coordinates":[-113.58,37.08]},"properties":{"name":"Saint George UT","state":"UT","pop":"  63952","capital":"0"}},{"type":"Feature","geometry":{"type":"Point","coordinates":[-94.82,39.76]},"properties":{"name":"Saint Joseph MO","state":"MO","pop":"  71282","capital":"0"}},{"type":"Feature","geometry":{"type":"Point","coordinates":[-90.24,38.64]},"properties":{"name":"Saint Louis MO","state":"MO","pop":" 315546","capital":"0"}},{"type":"Feature","geometry":{"type":"Point","coordinates":[-93.36,44.95]},"properties":{"name":"Saint Louis Park MN","state":"MN","pop":"  44032","capital":"0"}},{"type":"Feature","geometry":{"type":"Point","coordinates":[-93.1,44.95]},"properties":{"name":"Saint Paul MN","state":"MN","pop":" 272469","capital":"2"}},{"type":"Feature","geometry":{"type":"Point","coordinates":[-90.61,38.78]},"properties":{"name":"Saint Peters MO","state":"MO","pop":"  54258","capital":"0"}},{"type":"Feature","geometry":{"type":"Point","coordinates":[-82.64,27.76]},"properties":{"name":"Saint Petersburg FL","state":"FL","pop":" 245804","capital":"0"}},{"type":"Feature","geometry":{"type":"Point","coordinates":[-70.87,42.53]},"properties":{"name":"Salem NH","state":"NH","pop":"  42859","capital":"0"}},{"type":"Feature","geometry":{"type":"Point","coordinates":[-123.02,44.92]},"properties":{"name":"Salem OR","state":"OR","pop":" 148942","capital":"2"}},{"type":"Feature","geometry":{"type":"Point","coordinates":[-97.62,38.82]},"properties":{"name":"Salina KS","state":"KS","pop":"  45715","capital":"0"}},{"type":"Feature","geometry":{"type":"Point","coordinates":[-121.64,36.68]},"properties":{"name":"Salinas CA","state":"CA","pop":" 150050","capital":"0"}},{"type":"Feature","geometry":{"type":"Point","coordinates":[-111.93,40.78]},"properties":{"name":"Salt Lake City UT","state":"UT","pop":" 177318","capital":"2"}},{"type":"Feature","geometry":{"type":"Point","coordinates":[-100.45,31.45]},"properties":{"name":"San Angelo TX","state":"TX","pop":"  88143","capital":"0"}},{"type":"Feature","geometry":{"type":"Point","coordinates":[-98.51,29.46]},"properties":{"name":"San Antonio TX","state":"TX","pop":"1278171","capital":"0"}},{"type":"Feature","geometry":{"type":"Point","coordinates":[-117.29,34.14]},"properties":{"name":"San Bernardino CA","state":"CA","pop":" 205743","capital":"0"}},{"type":"Feature","geometry":{"type":"Point","coordinates":[-122.43,37.62]},"properties":{"name":"San Bruno CA","state":"CA","pop":"  39523","capital":"0"}},{"type":"Feature","geometry":{"type":"Point","coordinates":[-119.26,34.27]},"properties":{"name":"San Buenaventura CA","state":"CA","pop":" 106518","capital":"0"}},{"type":"Feature","geometry":{"type":"Point","coordinates":[-117.61,33.45]},"properties":{"name":"San Clemente CA","state":"CA","pop":"  64987","capital":"0"}},{"type":"Feature","geometry":{"type":"Point","coordinates":[-117.14,32.81]},"properties":{"name":"San Diego CA","state":"CA","pop":"1299352","capital":"0"}},{"type":"Feature","geometry":{"type":"Point","coordinates":[-122.45,37.77]},"properties":{"name":"San Francisco CA","state":"CA","pop":" 723724","capital":"0"}},{"type":"Feature","geometry":{"type":"Point","coordinates":[-118.1,34.09]},"properties":{"name":"San Gabriel CA","state":"CA","pop":"  41861","capital":"0"}},{"type":"Feature","geometry":{"type":"Point","coordinates":[-121.85,37.3]},"properties":{"name":"San Jose CA","state":"CA","pop":" 897883","capital":"0"}},{"type":"Feature","geometry":{"type":"Point","coordinates":[-122.15,37.71]},"properties":{"name":"San Leandro CA","state":"CA","pop":"  80015","capital":"0"}},{"type":"Feature","geometry":{"type":"Point","coordinates":[-120.66,35.27]},"properties":{"name":"San Luis Obispo CA","state":"CA","pop":"  44098","capital":"0"}},{"type":"Feature","geometry":{"type":"Point","coordinates":[-117.17,33.14]},"properties":{"name":"San Marcos CA","state":"CA","pop":"  73020","capital":"0"}},{"type":"Feature","geometry":{"type":"Point","coordinates":[-97.93,29.88]},"properties":{"name":"San Marcos TX","state":"TX","pop":"  49051","capital":"0"}},{"type":"Feature","geometry":{"type":"Point","coordinates":[-122.31,37.56]},"properties":{"name":"San Mateo CA","state":"CA","pop":"  89495","capital":"0"}},{"type":"Feature","geometry":{"type":"Point","coordinates":[-122.51,37.98]},"properties":{"name":"San Rafael CA","state":"CA","pop":"  55133","capital":"0"}},{"type":"Feature","geometry":{"type":"Point","coordinates":[-121.95,37.76]},"properties":{"name":"San Ramon CA","state":"CA","pop":"  46278","capital":"0"}},{"type":"Feature","geometry":{"type":"Point","coordinates":[-70.5,41.76]},"properties":{"name":"Sandwich ma","state":"ma","pop":"  51140","capital":"0"}},{"type":"Feature","geometry":{"type":"Point","coordinates":[-84.37,33.94]},"properties":{"name":"Sandy Springs GA","state":"GA","pop":"  96496","capital":"0"}},{"type":"Feature","geometry":{"type":"Point","coordinates":[-111.85,40.57]},"properties":{"name":"Sandy UT","state":"UT","pop":"  89698","capital":"0"}},{"type":"Feature","geometry":{"type":"Point","coordinates":[-81.28,28.79]},"properties":{"name":"Sanford FL","state":"FL","pop":"  46777","capital":"0"}},{"type":"Feature","geometry":{"type":"Point","coordinates":[-117.88,33.74]},"properties":{"name":"Santa Ana CA","state":"CA","pop":" 344086","capital":"0"}},{"type":"Feature","geometry":{"type":"Point","coordinates":[-119.72,34.43]},"properties":{"name":"Santa Barbara CA","state":"CA","pop":"  86115","capital":"0"}},{"type":"Feature","geometry":{"type":"Point","coordinates":[-121.97,37.37]},"properties":{"name":"Santa Clara CA","state":"CA","pop":" 102178","capital":"0"}},{"type":"Feature","geometry":{"type":"Point","coordinates":[-118.51,34.41]},"properties":{"name":"Santa Clarita CA","state":"CA","pop":" 172730","capital":"0"}},{"type":"Feature","geometry":{"type":"Point","coordinates":[-122.04,36.97]},"properties":{"name":"Santa Cruz CA","state":"CA","pop":"  54583","capital":"0"}},{"type":"Feature","geometry":{"type":"Point","coordinates":[-105.95,35.68]},"properties":{"name":"Santa Fe NM","state":"NM","pop":"  70598","capital":"2"}},{"type":"Feature","geometry":{"type":"Point","coordinates":[-120.44,34.94]},"properties":{"name":"Santa Maria CA","state":"CA","pop":"  87107","capital":"0"}},{"type":"Feature","geometry":{"type":"Point","coordinates":[-118.49,34.01]},"properties":{"name":"Santa Monica CA","state":"CA","pop":"  89112","capital":"0"}},{"type":"Feature","geometry":{"type":"Point","coordinates":[-122.7,38.45]},"properties":{"name":"Santa Rosa CA","state":"CA","pop":" 156669","capital":"0"}},{"type":"Feature","geometry":{"type":"Point","coordinates":[-116.98,32.86]},"properties":{"name":"Santee CA","state":"CA","pop":"  52505","capital":"0"}},{"type":"Feature","geometry":{"type":"Point","coordinates":[-82.55,27.34]},"properties":{"name":"Sarasota FL","state":"FL","pop":"  53422","capital":"0"}},{"type":"Feature","geometry":{"type":"Point","coordinates":[-81.13,32.02]},"properties":{"name":"Savannah GA","state":"GA","pop":" 124898","capital":"0"}},{"type":"Feature","geometry":{"type":"Point","coordinates":[-74.32,40.47]},"properties":{"name":"Sayreville NJ","state":"NJ","pop":"  43390","capital":"0"}},{"type":"Feature","geometry":{"type":"Point","coordinates":[-88.08,42.03]},"properties":{"name":"Schaumburg IL","state":"IL","pop":"  73071","capital":"0"}},{"type":"Feature","geometry":{"type":"Point","coordinates":[-73.93,42.8]},"properties":{"name":"Schenectady NY","state":"NY","pop":"  59930","capital":"0"}},{"type":"Feature","geometry":{"type":"Point","coordinates":[-111.87,33.69]},"properties":{"name":"Scottsdale AZ","state":"AZ","pop":" 230949","capital":"0"}},{"type":"Feature","geometry":{"type":"Point","coordinates":[-75.67,41.4]},"properties":{"name":"Scranton PA","state":"PA","pop":"  72516","capital":"0"}},{"type":"Feature","geometry":{"type":"Point","coordinates":[-121.16,47.88]},"properties":{"name":"Seattle Hill-Silver Firs WA","state":"WA","pop":"  42238","capital":"0"}},{"type":"Feature","geometry":{"type":"Point","coordinates":[-122.35,47.62]},"properties":{"name":"Seattle WA","state":"WA","pop":" 570430","capital":"0"}},{"type":"Feature","geometry":{"type":"Point","coordinates":[-76.69,39.14]},"properties":{"name":"Severn MD","state":"MD","pop":"  43718","capital":"0"}},{"type":"Feature","geometry":{"type":"Point","coordinates":[-94.8,39.02]},"properties":{"name":"Shawnee KS","state":"KS","pop":"  59626","capital":"0"}},{"type":"Feature","geometry":{"type":"Point","coordinates":[-87.73,43.75]},"properties":{"name":"Sheboygan WI","state":"WI","pop":"  48123","capital":"0"}},{"type":"Feature","geometry":{"type":"Point","coordinates":[-73.14,41.3]},"properties":{"name":"Shelton CT","state":"CT","pop":"  39988","capital":"0"}},{"type":"Feature","geometry":{"type":"Point","coordinates":[-122.36,47.75]},"properties":{"name":"Shoreline WA","state":"WA","pop":"  51316","capital":"0"}},{"type":"Feature","geometry":{"type":"Point","coordinates":[-93.8,32.47]},"properties":{"name":"Shreveport LA","state":"LA","pop":" 196228","capital":"0"}},{"type":"Feature","geometry":{"type":"Point","coordinates":[-110.32,31.57]},"properties":{"name":"Sierra Vista AZ","state":"AZ","pop":"  42088","capital":"0"}},{"type":"Feature","geometry":{"type":"Point","coordinates":[-77.02,39.01]},"properties":{"name":"Silver Spring MD","state":"MD","pop":"  78119","capital":"0"}},{"type":"Feature","geometry":{"type":"Point","coordinates":[-118.75,34.26]},"properties":{"name":"Simi Valley CA","state":"CA","pop":" 121033","capital":"0"}},{"type":"Feature","geometry":{"type":"Point","coordinates":[-96.39,42.5]},"properties":{"name":"Sioux City IA","state":"IA","pop":"  82863","capital":"0"}},{"type":"Feature","geometry":{"type":"Point","coordinates":[-96.73,43.54]},"properties":{"name":"Sioux Falls SD","state":"SD","pop":" 143534","capital":"0"}},{"type":"Feature","geometry":{"type":"Point","coordinates":[-87.74,42.04]},"properties":{"name":"Skokie IL","state":"IL","pop":"  64350","capital":"0"}},{"type":"Feature","geometry":{"type":"Point","coordinates":[-84.52,33.87]},"properties":{"name":"Smyrna GA","state":"GA","pop":"  47442","capital":"0"}},{"type":"Feature","geometry":{"type":"Point","coordinates":[-71.1,42.39]},"properties":{"name":"Somerville MA","state":"MA","pop":"  74802","capital":"0"}},{"type":"Feature","geometry":{"type":"Point","coordinates":[-86.27,41.68]},"properties":{"name":"South Bend IN","state":"IN","pop":" 102927","capital":"0"}},{"type":"Feature","geometry":{"type":"Point","coordinates":[-118.19,33.94]},"properties":{"name":"South Gate CA","state":"CA","pop":" 100612","capital":"0"}},{"type":"Feature","geometry":{"type":"Point","coordinates":[-122.27,47.14]},"properties":{"name":"South Hill WA","state":"WA","pop":"  47384","capital":"0"}},{"type":"Feature","geometry":{"type":"Point","coordinates":[-122.42,37.66]},"properties":{"name":"South San Francisco CA","state":"CA","pop":"  58176","capital":"0"}},{"type":"Feature","geometry":{"type":"Point","coordinates":[-106.68,35.01]},"properties":{"name":"South Valley NM","state":"NM","pop":"  39544","capital":"0"}},{"type":"Feature","geometry":{"type":"Point","coordinates":[-118.03,33.93]},"properties":{"name":"South Whittier CA","state":"CA","pop":"  59657","capital":"0"}},{"type":"Feature","geometry":{"type":"Point","coordinates":[-90,34.97]},"properties":{"name":"Southaven MS","state":"MS","pop":"  40806","capital":"0"}},{"type":"Feature","geometry":{"type":"Point","coordinates":[-83.26,42.48]},"properties":{"name":"Southfield MI","state":"MI","pop":"  76506","capital":"0"}},{"type":"Feature","geometry":{"type":"Point","coordinates":[-104.95,39.59]},"properties":{"name":"Southglenn CO","state":"CO","pop":"  41951","capital":"0"}},{"type":"Feature","geometry":{"type":"Point","coordinates":[-119.74,39.54]},"properties":{"name":"Sparks NV","state":"NV","pop":"  88518","capital":"0"}},{"type":"Feature","geometry":{"type":"Point","coordinates":[-117.41,47.67]},"properties":{"name":"Spokane WA","state":"WA","pop":" 197513","capital":"0"}},{"type":"Feature","geometry":{"type":"Point","coordinates":[-82.56,28.48]},"properties":{"name":"Spring Hill FL","state":"FL","pop":" 103782","capital":"0"}},{"type":"Feature","geometry":{"type":"Point","coordinates":[-115.24,36.11]},"properties":{"name":"Spring Valley NV","state":"NV","pop":" 176522","capital":"0"}},{"type":"Feature","geometry":{"type":"Point","coordinates":[-94.15,36.18]},"properties":{"name":"Springdale AR","state":"AR","pop":"  58761","capital":"0"}},{"type":"Feature","geometry":{"type":"Point","coordinates":[-89.64,39.78]},"properties":{"name":"Springfield IL","state":"IL","pop":" 116725","capital":"2"}},{"type":"Feature","geometry":{"type":"Point","coordinates":[-72.54,42.12]},"properties":{"name":"Springfield MA","state":"MA","pop":" 152095","capital":"0"}},{"type":"Feature","geometry":{"type":"Point","coordinates":[-93.29,37.2]},"properties":{"name":"Springfield MO","state":"MO","pop":" 150128","capital":"0"}},{"type":"Feature","geometry":{"type":"Point","coordinates":[-83.8,39.93]},"properties":{"name":"Springfield OH","state":"OH","pop":"  63915","capital":"0"}},{"type":"Feature","geometry":{"type":"Point","coordinates":[-122.98,44.05]},"properties":{"name":"Springfield OR","state":"OR","pop":"  56575","capital":"0"}},{"type":"Feature","geometry":{"type":"Point","coordinates":[-73.55,41.1]},"properties":{"name":"Stamford CT","state":"CT","pop":" 122011","capital":"0"}},{"type":"Feature","geometry":{"type":"Point","coordinates":[-77.86,40.79]},"properties":{"name":"State College PA","state":"PA","pop":"  42420","capital":"0"}},{"type":"Feature","geometry":{"type":"Point","coordinates":[-83.03,42.58]},"properties":{"name":"Sterling Heights MI","state":"MI","pop":" 127027","capital":"0"}},{"type":"Feature","geometry":{"type":"Point","coordinates":[-77.43,39.01]},"properties":{"name":"Sterling VA","state":"VA","pop":"  56529","capital":"0"}},{"type":"Feature","geometry":{"type":"Point","coordinates":[-97.07,36.13]},"properties":{"name":"Stillwater OK","state":"OK","pop":"  43473","capital":"0"}},{"type":"Feature","geometry":{"type":"Point","coordinates":[-121.31,37.97]},"properties":{"name":"Stockton CA","state":"CA","pop":" 299188","capital":"0"}},{"type":"Feature","geometry":{"type":"Point","coordinates":[-73.13,41.2]},"properties":{"name":"Stratford CT","state":"CT","pop":"  51466","capital":"0"}},{"type":"Feature","geometry":{"type":"Point","coordinates":[-81.83,41.31]},"properties":{"name":"Strongsville OH","state":"OH","pop":"  45073","capital":"0"}},{"type":"Feature","geometry":{"type":"Point","coordinates":[-76.64,36.7]},"properties":{"name":"Suffolk VA","state":"VA","pop":"  84396","capital":"0"}},{"type":"Feature","geometry":{"type":"Point","coordinates":[-95.62,29.62]},"properties":{"name":"Sugar Land TX","state":"TX","pop":"  78502","capital":"0"}},{"type":"Feature","geometry":{"type":"Point","coordinates":[-80.39,33.94]},"properties":{"name":"Sumter SC","state":"SC","pop":"  40018","capital":"0"}},{"type":"Feature","geometry":{"type":"Point","coordinates":[-112.28,33.62]},"properties":{"name":"Sun City AZ","state":"AZ","pop":"  41380","capital":"0"}},{"type":"Feature","geometry":{"type":"Point","coordinates":[-122.03,37.39]},"properties":{"name":"Sunnyvale CA","state":"CA","pop":" 125486","capital":"0"}},{"type":"Feature","geometry":{"type":"Point","coordinates":[-80.3,26.15]},"properties":{"name":"Sunrise FL","state":"FL","pop":"  92094","capital":"0"}},{"type":"Feature","geometry":{"type":"Point","coordinates":[-115.05,36.19]},"properties":{"name":"Sunrise Manor NV","state":"NV","pop":" 195581","capital":"0"}},{"type":"Feature","geometry":{"type":"Point","coordinates":[-112.47,33.66]},"properties":{"name":"Surprise AZ","state":"AZ","pop":"  74962","capital":"0"}},{"type":"Feature","geometry":{"type":"Point","coordinates":[-76.14,43.04]},"properties":{"name":"Syracuse NY","state":"NY","pop":" 140793","capital":"0"}},{"type":"Feature","geometry":{"type":"Point","coordinates":[-122.46,47.25]},"properties":{"name":"Tacoma WA","state":"WA","pop":" 197621","capital":"0"}},{"type":"Feature","geometry":{"type":"Point","coordinates":[-84.28,30.46]},"properties":{"name":"Tallahassee FL","state":"FL","pop":" 154114","capital":"2"}},{"type":"Feature","geometry":{"type":"Point","coordinates":[-80.26,26.2]},"properties":{"name":"Tamarac FL","state":"FL","pop":"  60021","capital":"0"}},{"type":"Feature","geometry":{"type":"Point","coordinates":[-80.4,25.76]},"properties":{"name":"Tamiami FL","state":"FL","pop":"  72493","capital":"0"}},{"type":"Feature","geometry":{"type":"Point","coordinates":[-82.48,27.96]},"properties":{"name":"Tampa FL","state":"FL","pop":" 328578","capital":"0"}},{"type":"Feature","geometry":{"type":"Point","coordinates":[-71.09,41.9]},"properties":{"name":"Taunton MA","state":"MA","pop":"  57377","capital":"0"}},{"type":"Feature","geometry":{"type":"Point","coordinates":[-83.27,42.23]},"properties":{"name":"Taylor MI","state":"MI","pop":"  64874","capital":"0"}},{"type":"Feature","geometry":{"type":"Point","coordinates":[-111.94,40.66]},"properties":{"name":"Taylorsville UT","state":"UT","pop":"  58200","capital":"0"}},{"type":"Feature","geometry":{"type":"Point","coordinates":[-74.01,40.89]},"properties":{"name":"Teaneck NJ","state":"NJ","pop":"  40197","capital":"0"}},{"type":"Feature","geometry":{"type":"Point","coordinates":[-117.13,33.5]},"properties":{"name":"Temecula CA","state":"CA","pop":"  90347","capital":"0"}},{"type":"Feature","geometry":{"type":"Point","coordinates":[-111.93,33.39]},"properties":{"name":"Tempe AZ","state":"AZ","pop":" 158313","capital":"0"}},{"type":"Feature","geometry":{"type":"Point","coordinates":[-97.36,31.1]},"properties":{"name":"Temple TX","state":"TX","pop":"  55916","capital":"0"}},{"type":"Feature","geometry":{"type":"Point","coordinates":[-87.38,39.47]},"properties":{"name":"Terre Haute IN","state":"IN","pop":"  56544","capital":"0"}},{"type":"Feature","geometry":{"type":"Point","coordinates":[-94.96,29.41]},"properties":{"name":"Texas City TX","state":"TX","pop":"  44321","capital":"0"}},{"type":"Feature","geometry":{"type":"Point","coordinates":[-96.89,33.09]},"properties":{"name":"The Colony TX","state":"TX","pop":"  45532","capital":"0"}},{"type":"Feature","geometry":{"type":"Point","coordinates":[-80.44,25.67]},"properties":{"name":"The Hammocks FL","state":"FL","pop":"  75402","capital":"0"}},{"type":"Feature","geometry":{"type":"Point","coordinates":[-95.49,30.16]},"properties":{"name":"The Woodlands TX","state":"TX","pop":"  80285","capital":"0"}},{"type":"Feature","geometry":{"type":"Point","coordinates":[-104.96,39.89]},"properties":{"name":"Thornton CO","state":"CO","pop":" 109695","capital":"0"}},{"type":"Feature","geometry":{"type":"Point","coordinates":[-118.87,34.19]},"properties":{"name":"Thousand Oaks CA","state":"CA","pop":" 130136","capital":"0"}},{"type":"Feature","geometry":{"type":"Point","coordinates":[-122.77,45.43]},"properties":{"name":"Tigard OR","state":"OR","pop":"  48122","capital":"0"}},{"type":"Feature","geometry":{"type":"Point","coordinates":[-87.8,41.57]},"properties":{"name":"Tinley Park IL","state":"IL","pop":"  59056","capital":"0"}},{"type":"Feature","geometry":{"type":"Point","coordinates":[-80.82,28.59]},"properties":{"name":"Titusville FL","state":"FL","pop":"  43054","capital":"0"}},{"type":"Feature","geometry":{"type":"Point","coordinates":[-83.58,41.66]},"properties":{"name":"Toledo OH","state":"OH","pop":" 305292","capital":"0"}},{"type":"Feature","geometry":{"type":"Point","coordinates":[-74.17,39.94]},"properties":{"name":"Toms River NJ","state":"NJ","pop":" 127934","capital":"0"}},{"type":"Feature","geometry":{"type":"Point","coordinates":[-78.88,42.98]},"properties":{"name":"Tonawanda CDP NY","state":"NY","pop":"  59175","capital":"0"}},{"type":"Feature","geometry":{"type":"Point","coordinates":[-95.69,39.04]},"properties":{"name":"Topeka KS","state":"KS","pop":" 121229","capital":"2"}},{"type":"Feature","geometry":{"type":"Point","coordinates":[-118.34,33.83]},"properties":{"name":"Torrance CA","state":"CA","pop":" 146264","capital":"0"}},{"type":"Feature","geometry":{"type":"Point","coordinates":[-82.58,28.01]},"properties":{"name":"Town'n'Country FL","state":"FL","pop":"  80599","capital":"0"}},{"type":"Feature","geometry":{"type":"Point","coordinates":[-76.62,39.4]},"properties":{"name":"Towson MD","state":"MD","pop":"  54075","capital":"0"}},{"type":"Feature","geometry":{"type":"Point","coordinates":[-121.43,37.74]},"properties":{"name":"Tracy CA","state":"CA","pop":"  89639","capital":"0"}},{"type":"Feature","geometry":{"type":"Point","coordinates":[-74.76,40.22]},"properties":{"name":"Trenton NJ","state":"NJ","pop":"  84653","capital":"2"}},{"type":"Feature","geometry":{"type":"Point","coordinates":[-83.14,42.58]},"properties":{"name":"Troy MI","state":"MI","pop":"  81296","capital":"0"}},{"type":"Feature","geometry":{"type":"Point","coordinates":[-73.68,42.73]},"properties":{"name":"Troy NY","state":"NY","pop":"  47993","capital":"0"}},{"type":"Feature","geometry":{"type":"Point","coordinates":[-77.59,37.59]},"properties":{"name":"Tuckahoe VA","state":"VA","pop":"  43996","capital":"0"}},{"type":"Feature","geometry":{"type":"Point","coordinates":[-110.89,32.2]},"properties":{"name":"Tucson AZ","state":"AZ","pop":" 525268","capital":"0"}},{"type":"Feature","geometry":{"type":"Point","coordinates":[-119.34,36.2]},"properties":{"name":"Tulare CA","state":"CA","pop":"  51365","capital":"0"}},{"type":"Feature","geometry":{"type":"Point","coordinates":[-95.92,36.13]},"properties":{"name":"Tulsa OK","state":"OK","pop":" 379833","capital":"0"}},{"type":"Feature","geometry":{"type":"Point","coordinates":[-120.85,37.5]},"properties":{"name":"Turlock CA","state":"CA","pop":"  70570","capital":"0"}},{"type":"Feature","geometry":{"type":"Point","coordinates":[-87.54,33.24]},"properties":{"name":"Tuscaloosa AL","state":"AL","pop":"  80164","capital":"0"}},{"type":"Feature","geometry":{"type":"Point","coordinates":[-117.81,33.73]},"properties":{"name":"Tustin CA","state":"CA","pop":"  69024","capital":"0"}},{"type":"Feature","geometry":{"type":"Point","coordinates":[-114.46,42.56]},"properties":{"name":"Twin Falls ID","state":"ID","pop":"  39383","capital":"0"}},{"type":"Feature","geometry":{"type":"Point","coordinates":[-95.3,32.33]},"properties":{"name":"Tyler TX","state":"TX","pop":"  92155","capital":"0"}},{"type":"Feature","geometry":{"type":"Point","coordinates":[-122.02,37.6]},"properties":{"name":"Union City CA","state":"CA","pop":"  70125","capital":"0"}},{"type":"Feature","geometry":{"type":"Point","coordinates":[-74.03,40.77]},"properties":{"name":"Union City NJ","state":"NJ","pop":"  65939","capital":"0"}},{"type":"Feature","geometry":{"type":"Point","coordinates":[-74.27,40.7]},"properties":{"name":"Union NJ","state":"NJ","pop":"  57198","capital":"0"}},{"type":"Feature","geometry":{"type":"Point","coordinates":[-117.66,34.12]},"properties":{"name":"Upland CA","state":"CA","pop":"  75365","capital":"0"}},{"type":"Feature","geometry":{"type":"Point","coordinates":[-88.21,40.11]},"properties":{"name":"Urbana IL","state":"IL","pop":"  39834","capital":"0"}},{"type":"Feature","geometry":{"type":"Point","coordinates":[-75.23,43.1]},"properties":{"name":"Utica NY","state":"NY","pop":"  58151","capital":"0"}},{"type":"Feature","geometry":{"type":"Point","coordinates":[-121.97,38.36]},"properties":{"name":"Vacaville CA","state":"CA","pop":"  98110","capital":"0"}},{"type":"Feature","geometry":{"type":"Point","coordinates":[-83.28,30.85]},"properties":{"name":"Valdosta GA","state":"GA","pop":"  45909","capital":"0"}},{"type":"Feature","geometry":{"type":"Point","coordinates":[-122.26,38.11]},"properties":{"name":"Vallejo CA","state":"CA","pop":" 121146","capital":"0"}},{"type":"Feature","geometry":{"type":"Point","coordinates":[-122.64,45.63]},"properties":{"name":"Vancouver WA","state":"WA","pop":" 161034","capital":"0"}},{"type":"Feature","geometry":{"type":"Point","coordinates":[-86.79,33.43]},"properties":{"name":"Vestavia Hills AL","state":"AL","pop":"  39397","capital":"0"}},{"type":"Feature","geometry":{"type":"Point","coordinates":[-96.98,28.82]},"properties":{"name":"Victoria TX","state":"TX","pop":"  62296","capital":"0"}},{"type":"Feature","geometry":{"type":"Point","coordinates":[-117.33,34.52]},"properties":{"name":"Victorville CA","state":"CA","pop":"  87903","capital":"0"}},{"type":"Feature","geometry":{"type":"Point","coordinates":[-75,39.46]},"properties":{"name":"Vineland NJ","state":"NJ","pop":"  58511","capital":"0"}},{"type":"Feature","geometry":{"type":"Point","coordinates":[-76.04,36.74]},"properties":{"name":"Virginia Beach VA","state":"VA","pop":" 453884","capital":"0"}},{"type":"Feature","geometry":{"type":"Point","coordinates":[-119.32,36.33]},"properties":{"name":"Visalia CA","state":"CA","pop":" 110620","capital":"0"}},{"type":"Feature","geometry":{"type":"Point","coordinates":[-117.24,33.19]},"properties":{"name":"Vista CA","state":"CA","pop":"  93266","capital":"0"}},{"type":"Feature","geometry":{"type":"Point","coordinates":[-77.02,38.91]},"properties":{"name":"WASHINGTON DC","state":"DC","pop":" 548359","capital":"0"}},{"type":"Feature","geometry":{"type":"Point","coordinates":[-97.18,31.57]},"properties":{"name":"Waco TX","state":"TX","pop":" 119911","capital":"0"}},{"type":"Feature","geometry":{"type":"Point","coordinates":[-122.04,37.9]},"properties":{"name":"Walnut Creek CA","state":"CA","pop":"  65334","capital":"0"}},{"type":"Feature","geometry":{"type":"Point","coordinates":[-71.25,42.14]},"properties":{"name":"Walpole MA","state":"MA","pop":"  45127","capital":"0"}},{"type":"Feature","geometry":{"type":"Point","coordinates":[-71.24,42.39]},"properties":{"name":"Waltham MA","state":"MA","pop":"  58407","capital":"0"}},{"type":"Feature","geometry":{"type":"Point","coordinates":[-83.63,32.61]},"properties":{"name":"Warner Robins GA","state":"GA","pop":"  59593","capital":"0"}},{"type":"Feature","geometry":{"type":"Point","coordinates":[-83.03,42.49]},"properties":{"name":"Warren MI","state":"MI","pop":" 132537","capital":"0"}},{"type":"Feature","geometry":{"type":"Point","coordinates":[-80.82,41.24]},"properties":{"name":"Warren OH","state":"OH","pop":"  44933","capital":"0"}},{"type":"Feature","geometry":{"type":"Point","coordinates":[-71.42,41.7]},"properties":{"name":"Warwick RI","state":"RI","pop":"  88443","capital":"0"}},{"type":"Feature","geometry":{"type":"Point","coordinates":[-73.04,41.56]},"properties":{"name":"Waterbury CT","state":"CT","pop":" 108645","capital":"0"}},{"type":"Feature","geometry":{"type":"Point","coordinates":[-83.39,42.66]},"properties":{"name":"Waterford MI","state":"MI","pop":"  76204","capital":"0"}},{"type":"Feature","geometry":{"type":"Point","coordinates":[-92.35,42.49]},"properties":{"name":"Waterloo IA","state":"IA","pop":"  65260","capital":"0"}},{"type":"Feature","geometry":{"type":"Point","coordinates":[-121.77,36.92]},"properties":{"name":"Watsonville CA","state":"CA","pop":"  45659","capital":"0"}},{"type":"Feature","geometry":{"type":"Point","coordinates":[-87.87,42.37]},"properties":{"name":"Waukegan IL","state":"IL","pop":"  93664","capital":"0"}},{"type":"Feature","geometry":{"type":"Point","coordinates":[-88.24,43.01]},"properties":{"name":"Waukesha WI","state":"WI","pop":"  68725","capital":"0"}},{"type":"Feature","geometry":{"type":"Point","coordinates":[-88.03,43.06]},"properties":{"name":"Wauwatosa WI","state":"WI","pop":"  45076","capital":"0"}},{"type":"Feature","geometry":{"type":"Point","coordinates":[-74.25,40.95]},"properties":{"name":"Wayne NJ","state":"NJ","pop":"  58667","capital":"0"}},{"type":"Feature","geometry":{"type":"Point","coordinates":[-80.25,26.66]},"properties":{"name":"Wellington FL","state":"FL","pop":"  56712","capital":"0"}},{"type":"Feature","geometry":{"type":"Point","coordinates":[-88.03,43.01]},"properties":{"name":"West Allis WI","state":"WI","pop":"  58958","capital":"0"}},{"type":"Feature","geometry":{"type":"Point","coordinates":[-73.36,40.71]},"properties":{"name":"West Babylon NY","state":"NY","pop":"  43595","capital":"0"}},{"type":"Feature","geometry":{"type":"Point","coordinates":[-83.38,42.57]},"properties":{"name":"West Bloomfield Township MI","state":"MI","pop":"  70520","capital":"0"}},{"type":"Feature","geometry":{"type":"Point","coordinates":[-117.91,34.05]},"properties":{"name":"West Covina CA","state":"CA","pop":" 110646","capital":"0"}},{"type":"Feature","geometry":{"type":"Point","coordinates":[-93.75,41.57]},"properties":{"name":"West Des Moines IA","state":"IA","pop":"  57126","capital":"0"}},{"type":"Feature","geometry":{"type":"Point","coordinates":[-72.75,41.77]},"properties":{"name":"West Hartford CT","state":"CT","pop":"  67156","capital":"0"}},{"type":"Feature","geometry":{"type":"Point","coordinates":[-72.97,41.27]},"properties":{"name":"West Haven CT","state":"CT","pop":"  53545","capital":"0"}},{"type":"Feature","geometry":{"type":"Point","coordinates":[-111.99,40.6]},"properties":{"name":"West Jordan UT","state":"UT","pop":" 105629","capital":"0"}},{"type":"Feature","geometry":{"type":"Point","coordinates":[-73.98,40.77]},"properties":{"name":"West New York NY","state":"NY","pop":"  46091","capital":"0"}},{"type":"Feature","geometry":{"type":"Point","coordinates":[-74.26,40.79]},"properties":{"name":"West Orange NJ","state":"NJ","pop":"  48754","capital":"0"}},{"type":"Feature","geometry":{"type":"Point","coordinates":[-80.13,26.75]},"properties":{"name":"West Palm Beach FL","state":"FL","pop":"  95924","capital":"0"}},{"type":"Feature","geometry":{"type":"Point","coordinates":[-121.55,38.56]},"properties":{"name":"West Sacramento CA","state":"CA","pop":"  43656","capital":"0"}},{"type":"Feature","geometry":{"type":"Point","coordinates":[-78.75,42.84]},"properties":{"name":"West Seneca NY","state":"NY","pop":"  44418","capital":"0"}},{"type":"Feature","geometry":{"type":"Point","coordinates":[-112.01,40.69]},"properties":{"name":"West Valley City UT","state":"UT","pop":" 113989","capital":"0"}},{"type":"Feature","geometry":{"type":"Point","coordinates":[-71.62,42.27]},"properties":{"name":"Westborough MA","state":"MA","pop":"  41520","capital":"0"}},{"type":"Feature","geometry":{"type":"Point","coordinates":[-72.76,42.14]},"properties":{"name":"Westfield MA","state":"MA","pop":"  41068","capital":"0"}},{"type":"Feature","geometry":{"type":"Point","coordinates":[-83.38,42.32]},"properties":{"name":"Westland MI","state":"MI","pop":"  84414","capital":"0"}},{"type":"Feature","geometry":{"type":"Point","coordinates":[-117.99,33.75]},"properties":{"name":"Westminster CA","state":"CA","pop":"  90187","capital":"0"}},{"type":"Feature","geometry":{"type":"Point","coordinates":[-105.05,39.88]},"properties":{"name":"Westminster CO","state":"CO","pop":" 104708","capital":"0"}},{"type":"Feature","geometry":{"type":"Point","coordinates":[-80.4,26.1]},"properties":{"name":"Weston FL","state":"FL","pop":"  72902","capital":"0"}},{"type":"Feature","geometry":{"type":"Point","coordinates":[-70.95,42.21]},"properties":{"name":"Weymouth MA","state":"MA","pop":"  54444","capital":"0"}},{"type":"Feature","geometry":{"type":"Point","coordinates":[-88.11,41.86]},"properties":{"name":"Wheaton IL","state":"IL","pop":"  54365","capital":"0"}},{"type":"Feature","geometry":{"type":"Point","coordinates":[-77.05,39.06]},"properties":{"name":"Wheaton-Glenmont MD","state":"MD","pop":"  61095","capital":"0"}},{"type":"Feature","geometry":{"type":"Point","coordinates":[-73.76,41.02]},"properties":{"name":"White Plains NY","state":"NY","pop":"  58084","capital":"0"}},{"type":"Feature","geometry":{"type":"Point","coordinates":[-118.02,33.97]},"properties":{"name":"Whittier CA","state":"CA","pop":"  86182","capital":"0"}},{"type":"Feature","geometry":{"type":"Point","coordinates":[-98.52,33.9]},"properties":{"name":"Wichita Falls TX","state":"TX","pop":" 100616","capital":"0"}},{"type":"Feature","geometry":{"type":"Point","coordinates":[-97.34,37.69]},"properties":{"name":"Wichita KS","state":"KS","pop":" 356051","capital":"0"}},{"type":"Feature","geometry":{"type":"Point","coordinates":[-75.88,41.25]},"properties":{"name":"Wilkes-Barre PA","state":"PA","pop":"  40242","capital":"0"}},{"type":"Feature","geometry":{"type":"Point","coordinates":[-75.53,39.74]},"properties":{"name":"Wilmington DE","state":"DE","pop":"  71065","capital":"0"}},{"type":"Feature","geometry":{"type":"Point","coordinates":[-77.91,34.21]},"properties":{"name":"Wilmington NC","state":"NC","pop":"  93097","capital":"0"}},{"type":"Feature","geometry":{"type":"Point","coordinates":[-77.92,35.73]},"properties":{"name":"Wilson NC","state":"NC","pop":"  47191","capital":"0"}},{"type":"Feature","geometry":{"type":"Point","coordinates":[-80.26,36.1]},"properties":{"name":"Winston-Salem NC","state":"NC","pop":" 194826","capital":"0"}},{"type":"Feature","geometry":{"type":"Point","coordinates":[-92.92,44.91]},"properties":{"name":"Woodbury MN","state":"MN","pop":"  52052","capital":"0"}},{"type":"Feature","geometry":{"type":"Point","coordinates":[-121.77,38.68]},"properties":{"name":"Woodland CA","state":"CA","pop":"  52266","capital":"0"}},{"type":"Feature","geometry":{"type":"Point","coordinates":[-71.5,42]},"properties":{"name":"Woonsocket RI","state":"RI","pop":"  46297","capital":"0"}},{"type":"Feature","geometry":{"type":"Point","coordinates":[-71.81,42.27]},"properties":{"name":"Worcester MA","state":"MA","pop":" 177973","capital":"0"}},{"type":"Feature","geometry":{"type":"Point","coordinates":[-85.7,42.89]},"properties":{"name":"Wyoming MI","state":"MI","pop":"  70474","capital":"0"}},{"type":"Feature","geometry":{"type":"Point","coordinates":[-120.53,46.59]},"properties":{"name":"Yakima WA","state":"WA","pop":"  89815","capital":"0"}},{"type":"Feature","geometry":{"type":"Point","coordinates":[-73.87,40.95]},"properties":{"name":"Yonkers NY","state":"NY","pop":" 198045","capital":"0"}},{"type":"Feature","geometry":{"type":"Point","coordinates":[-117.77,33.89]},"properties":{"name":"Yorba Linda CA","state":"CA","pop":"  65932","capital":"0"}},{"type":"Feature","geometry":{"type":"Point","coordinates":[-80.65,41.1]},"properties":{"name":"Youngstown OH","state":"OH","pop":"  76590","capital":"0"}},{"type":"Feature","geometry":{"type":"Point","coordinates":[-121.62,39.14]},"properties":{"name":"Yuba City CA","state":"CA","pop":"  54086","capital":"0"}},{"type":"Feature","geometry":{"type":"Point","coordinates":[-117.04,34.03]},"properties":{"name":"Yucaipa CA","state":"CA","pop":"  52333","capital":"0"}},{"type":"Feature","geometry":{"type":"Point","coordinates":[-114.62,32.68]},"properties":{"name":"Yuma AZ","state":"AZ","pop":"  85720","capital":"0"}}]}
